time,header,pose
"2022/09/21 12:49:09.764197438,""{'stamp': {'secs': 1663757349, 'nsecs': 755034771}, 'frame_id': 'map'}"",""{'position': {'x': 0.1927141696214676, 'y': -0.11089448630809784, 'z': 0.15425291657447815}, 'orientation': {'x': -0.013802508676021176, 'y': -0.012043698461784422, 'z': 0.8777589493386724, 'w': -0.47875228996882485}}"""
"2022/09/21 12:49:09.941650197,""{'stamp': {'secs': 1663757349, 'nsecs': 921906271}, 'frame_id': 'map'}"",""{'position': {'x': 0.2084445059299469, 'y': -0.046849798411130905, 'z': 0.3053944408893585}, 'orientation': {'x': -0.02117676876016559, 'y': -0.020847385006357216, 'z': 0.8826249083663764, 'w': -0.46913781410679245}}"""
"2022/09/21 12:49:10.216959697,""{'stamp': {'secs': 1663757350, 'nsecs': 88797623}, 'frame_id': 'map'}"",""{'position': {'x': 0.22483016550540924, 'y': 0.020157473161816597, 'z': 0.4017851650714874}, 'orientation': {'x': -0.02024515875136832, 'y': -0.021861918939599673, 'z': 0.8874361607847132, 'w': -0.45996655450370066}}"""
"2022/09/21 12:49:10.265589511,""{'stamp': {'secs': 1663757350, 'nsecs': 255261900}, 'frame_id': 'map'}"",""{'position': {'x': 0.24011990427970886, 'y': 0.08288180083036423, 'z': 0.4383538067340851}, 'orientation': {'x': -0.028155758288704404, 'y': -0.01931839392204998, 'z': 0.8892917811575267, 'w': -0.4560639459924102}}"""
"2022/09/21 12:49:10.449577326,""{'stamp': {'secs': 1663757350, 'nsecs': 424081585}, 'frame_id': 'map'}"",""{'position': {'x': 0.2490750402212143, 'y': 0.13654664158821106, 'z': 0.4707396328449249}, 'orientation': {'x': -0.030350280647213256, 'y': -0.026174396250717432, 'z': 0.8927394355125663, 'w': -0.4487875033312469}}"""
"2022/09/21 12:49:10.615463141,""{'stamp': {'secs': 1663757350, 'nsecs': 586630604}, 'frame_id': 'map'}"",""{'position': {'x': 0.25389793515205383, 'y': 0.18614321947097778, 'z': 0.5459850430488586}, 'orientation': {'x': -0.025901226380888126, 'y': -0.026043083803204452, 'z': 0.895346218092965, 'w': -0.44385370895086457}}"""
"2022/09/21 12:49:10.781151715,""{'stamp': {'secs': 1663757350, 'nsecs': 753202326}, 'frame_id': 'map'}"",""{'position': {'x': 0.25970718264579773, 'y': 0.23386864364147186, 'z': 0.6334185004234314}, 'orientation': {'x': -0.017593555055529776, 'y': -0.019261277204419752, 'z': 0.8970461480073793, 'w': -0.44116644696323426}}"""
"2022/09/21 12:49:10.942175085,""{'stamp': {'secs': 1663757350, 'nsecs': 919627233}, 'frame_id': 'map'}"",""{'position': {'x': 0.2669869661331177, 'y': 0.29244333505630493, 'z': 0.7251591682434082}, 'orientation': {'x': 0.00747909738578543, 'y': 0.004048753202410365, 'z': 0.8998433289759259, 'w': -0.43613042540178876}}"""
"2022/09/21 12:49:11.98520863,""{'stamp': {'secs': 1663757351, 'nsecs': 85625881}, 'frame_id': 'map'}"",""{'position': {'x': 0.27805718779563904, 'y': 0.3582204282283783, 'z': 0.8122339248657227}, 'orientation': {'x': -0.01772243320355876, 'y': -0.022597578597876856, 'z': 0.9016287326991201, 'w': -0.4315564175937197}}"""
"2022/09/21 12:49:11.269192048,""{'stamp': {'secs': 1663757351, 'nsecs': 251005918}, 'frame_id': 'map'}"",""{'position': {'x': 0.2885604500770569, 'y': 0.4206721782684326, 'z': 0.8916845917701721}, 'orientation': {'x': -0.015947354635069053, 'y': -0.021577133095801882, 'z': 0.9032837972932944, 'w': -0.4282037622352236}}"""
"2022/09/21 12:49:11.441682326,""{'stamp': {'secs': 1663757351, 'nsecs': 418871826}, 'frame_id': 'map'}"",""{'position': {'x': 0.2996462285518646, 'y': 0.48139938712120056, 'z': 0.9781554341316223}, 'orientation': {'x': -0.02577422295472701, 'y': -0.02700090698063657, 'z': 0.9056060675728205, 'w': -0.42247400354728887}}"""
"2022/09/21 12:49:11.593347788,""{'stamp': {'secs': 1663757351, 'nsecs': 582035622}, 'frame_id': 'map'}"",""{'position': {'x': 0.30651935935020447, 'y': 0.5333230495452881, 'z': 1.0551295280456543}, 'orientation': {'x': -0.02738076928227568, 'y': -0.020372094769325194, 'z': 0.9080509641080889, 'w': -0.4174670000910432}}"""
"2022/09/21 12:49:11.757730936,""{'stamp': {'secs': 1663757351, 'nsecs': 748191492}, 'frame_id': 'map'}"",""{'position': {'x': 0.3082383871078491, 'y': 0.5778816938400269, 'z': 1.1295424699783325}, 'orientation': {'x': -0.028025331243992643, 'y': -0.032478166204048343, 'z': 0.8638364755029475, 'w': -0.5019426029110042}}"""
"2022/09/21 12:49:11.924388640,""{'stamp': {'secs': 1663757351, 'nsecs': 918132936}, 'frame_id': 'map'}"",""{'position': {'x': 0.30348682403564453, 'y': 0.6096829175949097, 'z': 1.2087733745574951}, 'orientation': {'x': -0.03975703230900103, 'y': -0.03652777304477721, 'z': 0.8667207318605178, 'w': -0.49586310967412617}}"""
"2022/09/21 12:49:12.91154029,""{'stamp': {'secs': 1663757352, 'nsecs': 83010566}, 'frame_id': 'map'}"",""{'position': {'x': 0.29264259338378906, 'y': 0.623138427734375, 'z': 1.2849366664886475}, 'orientation': {'x': -0.04228233218961036, 'y': -0.034591591275941025, 'z': 0.8716433994728932, 'w': -0.48708687140870266}}"""
"2022/09/21 12:49:12.253243973,""{'stamp': {'secs': 1663757352, 'nsecs': 248374770}, 'frame_id': 'map'}"",""{'position': {'x': 0.2692144215106964, 'y': 0.6205167770385742, 'z': 1.3704299926757812}, 'orientation': {'x': -0.046284583094770196, 'y': -0.04036182476788092, 'z': 0.8733421703489733, 'w': -0.48322057240740435}}"""
"2022/09/21 12:49:12.422868325,""{'stamp': {'secs': 1663757352, 'nsecs': 415139732}, 'frame_id': 'map'}"",""{'position': {'x': 0.2347991168498993, 'y': 0.6031556725502014, 'z': 1.450608730316162}, 'orientation': {'x': -0.04777493665251103, 'y': -0.04302213499834144, 'z': 0.8759888027746391, 'w': -0.4780275959821043}}"""
"2022/09/21 12:49:12.586526677,""{'stamp': {'secs': 1663757352, 'nsecs': 578792492}, 'frame_id': 'map'}"",""{'position': {'x': 0.196784108877182, 'y': 0.5694243311882019, 'z': 1.521650791168213}, 'orientation': {'x': -0.037361006032397726, 'y': -0.04948077354652564, 'z': 0.8779601794668876, 'w': -0.47470187245980666}}"""
"2022/09/21 12:49:12.747900454,""{'stamp': {'secs': 1663757352, 'nsecs': 744881843}, 'frame_id': 'map'}"",""{'position': {'x': 0.15468794107437134, 'y': 0.5150544047355652, 'z': 1.5987989902496338}, 'orientation': {'x': -0.0350034594992126, 'y': -0.051902741537659655, 'z': 0.8788336096820032, 'w': -0.47300371271303}}"""
"2022/09/21 12:49:12.919556436,""{'stamp': {'secs': 1663757352, 'nsecs': 911584899}, 'frame_id': 'map'}"",""{'position': {'x': 0.11949954181909561, 'y': 0.44734951853752136, 'z': 1.6599516868591309}, 'orientation': {'x': -0.02271924156764025, 'y': -0.05592444914030785, 'z': 0.8799595838133959, 'w': -0.47119790991515653}}"""
"2022/09/21 12:49:13.82447713,""{'stamp': {'secs': 1663757353, 'nsecs': 77839528}, 'frame_id': 'map'}"",""{'position': {'x': 0.08851036429405212, 'y': 0.35976237058639526, 'z': 1.712207555770874}, 'orientation': {'x': -0.019470790340820304, 'y': -0.059408696179478054, 'z': 0.8803491471341821, 'w': -0.47018819786538096}}"""
"2022/09/21 12:49:13.249884399,""{'stamp': {'secs': 1663757353, 'nsecs': 245278065}, 'frame_id': 'map'}"",""{'position': {'x': 0.06367301195859909, 'y': 0.2634495794773102, 'z': 1.7713453769683838}, 'orientation': {'x': -0.010003017121742215, 'y': -0.05081190338994578, 'z': 0.8808613367107108, 'w': -0.47053327518756394}}"""
"2022/09/21 12:49:13.421325621,""{'stamp': {'secs': 1663757353, 'nsecs': 412435713}, 'frame_id': 'map'}"",""{'position': {'x': 0.047240205109119415, 'y': 0.17873474955558777, 'z': 1.825016975402832}, 'orientation': {'x': 0.006325721382051609, 'y': 0.01222836051567749, 'z': 0.8821280180958572, 'w': -0.470808409814643}}"""
"2022/09/21 12:49:13.715265880,""{'stamp': {'secs': 1663757353, 'nsecs': 578356898}, 'frame_id': 'map'}"",""{'position': {'x': 0.03295965492725372, 'y': 0.11238561570644379, 'z': 1.8851969242095947}, 'orientation': {'x': 0.01638924820736528, 'y': 0.02641585505192791, 'z': 0.8822949406893846, 'w': -0.46966924371966634}}"""
"2022/09/21 12:49:13.751984287,""{'stamp': {'secs': 1663757353, 'nsecs': 744553713}, 'frame_id': 'map'}"",""{'position': {'x': 0.02019818127155304, 'y': 0.0775391012430191, 'z': 1.9387311935424805}, 'orientation': {'x': 0.01756133889356308, 'y': 0.022150370077492716, 'z': 0.8828268339175921, 'w': -0.4688472958800069}}"""
"2022/09/21 12:49:13.920860917,""{'stamp': {'secs': 1663757353, 'nsecs': 912173917}, 'frame_id': 'map'}"",""{'position': {'x': 0.007795971818268299, 'y': 0.05807468667626381, 'z': 1.981170654296875}, 'orientation': {'x': -0.02012447742451214, 'y': -0.016408165886173894, 'z': 0.882684356496201, 'w': -0.46924863924495186}}"""
"2022/09/21 12:49:14.83531268,""{'stamp': {'secs': 1663757354, 'nsecs': 74541602}, 'frame_id': 'map'}"",""{'position': {'x': -0.012340521439909935, 'y': 0.03683167323470116, 'z': 2.0234792232513428}, 'orientation': {'x': -0.05215445371222337, 'y': -0.03578760095721328, 'z': 0.8808191055685028, 'w': -0.4692089369136546}}"""
"2022/09/21 12:49:14.245202287,""{'stamp': {'secs': 1663757354, 'nsecs': 241746231}, 'frame_id': 'map'}"",""{'position': {'x': -0.04118837043642998, 'y': -0.0007858281023800373, 'z': 2.0615766048431396}, 'orientation': {'x': -0.05831874739612221, 'y': -0.04849387380777893, 'z': 0.8797021719361157, 'w': -0.4694373306857351}}"""
"2022/09/21 12:49:14.425644879,""{'stamp': {'secs': 1663757354, 'nsecs': 417048361}, 'frame_id': 'map'}"",""{'position': {'x': -0.06469886004924774, 'y': -0.0016498342156410217, 'z': 2.09108304977417}, 'orientation': {'x': -0.053789341490489834, 'y': -0.06049957219350114, 'z': 0.8789941470279812, 'w': -0.46991034476657295}}"""
"2022/09/21 12:49:14.581930083,""{'stamp': {'secs': 1663757354, 'nsecs': 576228990}, 'frame_id': 'map'}"",""{'position': {'x': 0.1201319769024849, 'y': 0.7672236561775208, 'z': 2.0963046550750732}, 'orientation': {'x': -0.08673073185272025, 'y': -0.1297215104189502, 'z': 0.8708184592069894, 'w': -0.4661818238130567}}"""
"2022/09/21 12:49:14.823178083,""{'stamp': {'secs': 1663757354, 'nsecs': 741430712}, 'frame_id': 'map'}"",""{'position': {'x': 0.20347820222377777, 'y': 1.1260654926300049, 'z': 2.1184332370758057}, 'orientation': {'x': -0.11412113234842515, 'y': -0.19486904661512805, 'z': 0.8565280644571887, 'w': -0.4640713625207221}}"""
"2022/09/21 12:49:14.923306379,""{'stamp': {'secs': 1663757354, 'nsecs': 910734379}, 'frame_id': 'map'}"",""{'position': {'x': 0.20565703511238098, 'y': 1.1656216382980347, 'z': 2.1462268829345703}, 'orientation': {'x': -0.14655923303388002, 'y': -0.17841260941651904, 'z': 0.8545595326772146, 'w': -0.4652069039867269}}"""
"2022/09/21 12:49:15.84596897,""{'stamp': {'secs': 1663757355, 'nsecs': 72613472}, 'frame_id': 'map'}"",""{'position': {'x': 0.13972367346286774, 'y': 1.0399835109710693, 'z': 2.158320903778076}, 'orientation': {'x': -0.1141520141345825, 'y': -0.07481308613607138, 'z': 0.8732353491614224, 'w': -0.4677952683943264}}"""
"2022/09/21 12:49:15.246126694,""{'stamp': {'secs': 1663757355, 'nsecs': 237889823}, 'frame_id': 'map'}"",""{'position': {'x': 0.03352221101522446, 'y': 0.8086577653884888, 'z': 2.198922872543335}, 'orientation': {'x': -0.047729813018187926, 'y': -0.028959069977332455, 'z': 0.8800583549528812, 'w': -0.4715724478844485}}"""
"2022/09/21 12:49:15.412501582,""{'stamp': {'secs': 1663757355, 'nsecs': 405389768}, 'frame_id': 'map'}"",""{'position': {'x': -0.1115642637014389, 'y': 0.5278931856155396, 'z': 2.2637906074523926}, 'orientation': {'x': 0.0031949777420439817, 'y': -0.0038984369611046966, 'z': 0.881070153271658, 'w': -0.47295872095224467}}"""
"2022/09/21 12:49:15.583173638,""{'stamp': {'secs': 1663757355, 'nsecs': 573011990}, 'frame_id': 'map'}"",""{'position': {'x': -0.2866448760032654, 'y': 0.22213633358478546, 'z': 2.333768129348755}, 'orientation': {'x': 0.03411120742351438, 'y': 0.025218821663218004, 'z': 0.881014961973533, 'w': -0.4711828002699653}}"""
"2022/09/21 12:49:15.882731841,""{'stamp': {'secs': 1663757355, 'nsecs': 737457304}, 'frame_id': 'map'}"",""{'position': {'x': -0.4577777087688446, 'y': -0.0779905766248703, 'z': 2.4196856021881104}, 'orientation': {'x': 0.09128768072385444, 'y': 0.058976602737277256, 'z': 0.8772239583170993, 'w': -0.4676179987494896}}"""
"2022/09/21 12:49:15.915734286,""{'stamp': {'secs': 1663757355, 'nsecs': 905229897}, 'frame_id': 'map'}"",""{'position': {'x': -0.5948110222816467, 'y': -0.33156856894493103, 'z': 2.5107975006103516}, 'orientation': {'x': 0.07069709208203724, 'y': 0.0472497044373656, 'z': 0.8783765481833268, 'w': -0.4703446891139019}}"""
"2022/09/21 12:49:16.81139601,""{'stamp': {'secs': 1663757356, 'nsecs': 72078638}, 'frame_id': 'map'}"",""{'position': {'x': -0.6923991441726685, 'y': -0.5397611260414124, 'z': 2.597858428955078}, 'orientation': {'x': 0.05039590082425305, 'y': 0.029367847651228008, 'z': 0.8794711229125789, 'w': -0.4723647664896048}}"""
"2022/09/21 12:49:16.243753323,""{'stamp': {'secs': 1663757356, 'nsecs': 234647100}, 'frame_id': 'map'}"",""{'position': {'x': -0.765346109867096, 'y': -0.7275705933570862, 'z': 2.673205614089966}, 'orientation': {'x': 0.024707860272196753, 'y': 0.01058771771695576, 'z': 0.8811114571831987, 'w': -0.472144106664226}}"""
"2022/09/21 12:49:16.416782341,""{'stamp': {'secs': 1663757356, 'nsecs': 406482619}, 'frame_id': 'map'}"",""{'position': {'x': -0.8168050050735474, 'y': -0.8898123502731323, 'z': 2.7397820949554443}, 'orientation': {'x': -0.003766182455383287, 'y': 0.022091717798706, 'z': 0.881741426127891, 'w': -0.47120056516661263}}"""
"2022/09/21 12:49:16.575971156,""{'stamp': {'secs': 1663757356, 'nsecs': 569196156}, 'frame_id': 'map'}"",""{'position': {'x': -0.858212947845459, 'y': -1.0291703939437866, 'z': 2.7895073890686035}, 'orientation': {'x': -0.011200762067792984, 'y': 0.03451207861204715, 'z': 0.8817382651142527, 'w': -0.4703414859534151}}"""
"2022/09/21 12:49:16.744352137,""{'stamp': {'secs': 1663757356, 'nsecs': 735582230}, 'frame_id': 'map'}"",""{'position': {'x': -0.910386860370636, 'y': -1.141423225402832, 'z': 2.848991632461548}, 'orientation': {'x': -0.013604915112897051, 'y': 0.031503033997114724, 'z': 0.8816292101437307, 'w': -0.47069355965245085}}"""
"2022/09/21 12:49:16.989113137,""{'stamp': {'secs': 1663757356, 'nsecs': 899664896}, 'frame_id': 'map'}"",""{'position': {'x': -0.9693543910980225, 'y': -1.2266887426376343, 'z': 2.8960769176483154}, 'orientation': {'x': -0.03895758463027356, 'y': 0.029776433688671795, 'z': 0.8795157564251519, 'w': -0.4733368835505085}}"""
"2022/09/21 12:49:17.77593415,""{'stamp': {'secs': 1663757357, 'nsecs': 68451285}, 'frame_id': 'map'}"",""{'position': {'x': -1.0415335893630981, 'y': -1.310186743736267, 'z': 2.919677734375}, 'orientation': {'x': -0.04859732094254315, 'y': 0.008944938929122391, 'z': 0.8790689998309366, 'w': -0.47412663119790577}}"""
"2022/09/21 12:49:17.239476304,""{'stamp': {'secs': 1663757357, 'nsecs': 235422767}, 'frame_id': 'map'}"",""{'position': {'x': -1.1270884275436401, 'y': -1.4109760522842407, 'z': 2.9343113899230957}, 'orientation': {'x': -0.058787073627879896, 'y': 0.017195006718112738, 'z': 0.8784521807029795, 'w': -0.47388829076957667}}"""
"2022/09/21 12:49:17.405505729,""{'stamp': {'secs': 1663757357, 'nsecs': 399039266}, 'frame_id': 'map'}"",""{'position': {'x': -1.2300418615341187, 'y': -1.5063145160675049, 'z': 2.964310884475708}, 'orientation': {'x': -0.04563544128527244, 'y': 0.028851611318697814, 'z': 0.8803770062010479, 'w': -0.4711914193004857}}"""
"2022/09/21 12:49:17.573869174,""{'stamp': {'secs': 1663757357, 'nsecs': 565733655}, 'frame_id': 'map'}"",""{'position': {'x': -1.3564839363098145, 'y': -1.572242259979248, 'z': 3.038076639175415}, 'orientation': {'x': 0.011511058032514522, 'y': -0.02180499575173673, 'z': 0.8816827155679153, 'w': -0.47119816279624754}}"""
"2022/09/21 12:49:17.740363414,""{'stamp': {'secs': 1663757357, 'nsecs': 730545970}, 'frame_id': 'map'}"",""{'position': {'x': -1.4672107696533203, 'y': -1.6031286716461182, 'z': 3.1448771953582764}, 'orientation': {'x': 0.031205885214950504, 'y': -0.04066577104645654, 'z': 0.880850715704886, 'w': -0.47061082538882393}}"""
"2022/09/21 12:49:17.910112488,""{'stamp': {'secs': 1663757357, 'nsecs': 898370007}, 'frame_id': 'map'}"",""{'position': {'x': -1.5615004301071167, 'y': -1.6145153045654297, 'z': 3.279881238937378}, 'orientation': {'x': 0.02964112584133912, 'y': -0.03868389419130046, 'z': 0.8809543337319501, 'w': -0.47068515135617284}}"""
"2022/09/21 12:49:18.74635099,""{'stamp': {'secs': 1663757358, 'nsecs': 65612729}, 'frame_id': 'map'}"",""{'position': {'x': -1.6310385465621948, 'y': -1.6121731996536255, 'z': 3.407315731048584}, 'orientation': {'x': 0.0190814377542766, 'y': -0.0413322342228755, 'z': 0.8811475559589482, 'w': -0.47064492218926923}}"""
"2022/09/21 12:49:18.243664951,""{'stamp': {'secs': 1663757358, 'nsecs': 232749451}, 'frame_id': 'map'}"",""{'position': {'x': -1.6814812421798706, 'y': -1.5986297130584717, 'z': 3.516975164413452}, 'orientation': {'x': 0.015759624669267377, 'y': -0.042386204414854474, 'z': 0.8815062677866244, 'w': -0.47000188772153856}}"""
"2022/09/21 12:49:18.402056007,""{'stamp': {'secs': 1663757358, 'nsecs': 396599155}, 'frame_id': 'map'}"",""{'position': {'x': -1.7290836572647095, 'y': -1.5729742050170898, 'z': 3.6233716011047363}, 'orientation': {'x': -0.0072775269546957195, 'y': -0.011133400537888196, 'z': 0.8817285502656709, 'w': -0.4715697504861438}}"""
"2022/09/21 12:49:18.576863858,""{'stamp': {'secs': 1663757358, 'nsecs': 564407840}, 'frame_id': 'map'}"",""{'position': {'x': -1.7783547639846802, 'y': -1.5374393463134766, 'z': 3.7259769439697266}, 'orientation': {'x': -0.024324737516698683, 'y': 0.008725820097892285, 'z': 0.8805078510922499, 'w': -0.4733267261600175}}"""
"2022/09/21 12:49:18.735015932,""{'stamp': {'secs': 1663757358, 'nsecs': 728449080}, 'frame_id': 'map'}"",""{'position': {'x': -1.8454729318618774, 'y': -1.481500267982483, 'z': 3.8377127647399902}, 'orientation': {'x': -0.03366627598540283, 'y': 0.02304156057944402, 'z': 0.879492090969713, 'w': -0.4741617605961395}}"""
"2022/09/21 12:49:18.906663321,""{'stamp': {'secs': 1663757358, 'nsecs': 894867358}, 'frame_id': 'map'}"",""{'position': {'x': -1.9365291595458984, 'y': -1.4032071828842163, 'z': 3.959291458129883}, 'orientation': {'x': -0.041364077484014494, 'y': 0.03023384553302643, 'z': 0.878370542257414, 'w': -0.47522657965034304}}"""
"2022/09/21 12:49:19.202928876,""{'stamp': {'secs': 1663757359, 'nsecs': 62453543}, 'frame_id': 'map'}"",""{'position': {'x': -2.03255033493042, 'y': -1.3142726421356201, 'z': 4.069864273071289}, 'orientation': {'x': -0.015281712992923802, 'y': -0.019230718598979703, 'z': 0.8789982141988624, 'w': -0.47619205858260627}}"""
"2022/09/21 12:49:19.240850747,""{'stamp': {'secs': 1663757359, 'nsecs': 228380025}, 'frame_id': 'map'}"",""{'position': {'x': -2.132845401763916, 'y': -1.212991714477539, 'z': 4.180373191833496}, 'orientation': {'x': 0.0014229329234664249, 'y': -0.0476907738412102, 'z': 0.87788893021948, 'w': -0.4764814177710579}}"""
"2022/09/21 12:49:19.401408154,""{'stamp': {'secs': 1663757359, 'nsecs': 395720765}, 'frame_id': 'map'}"",""{'position': {'x': -2.2115182876586914, 'y': -1.1222037076950073, 'z': 4.266060829162598}, 'orientation': {'x': 0.006756008107394679, 'y': -0.08425393673857412, 'z': 0.8757261436147192, 'w': -0.4753518611575417}}"""
"2022/09/21 12:49:19.568896376,""{'stamp': {'secs': 1663757359, 'nsecs': 558829098}, 'frame_id': 'map'}"",""{'position': {'x': -2.2653491497039795, 'y': -1.0485831499099731, 'z': 4.321718692779541}, 'orientation': {'x': 0.0035443602989478577, 'y': -0.07292550132992953, 'z': 0.8766982606756231, 'w': -0.4754677228440981}}"""
"2022/09/21 12:49:19.736349691,""{'stamp': {'secs': 1663757359, 'nsecs': 725519839}, 'frame_id': 'map'}"",""{'position': {'x': -2.3118581771850586, 'y': -0.9772999286651611, 'z': 4.374643802642822}, 'orientation': {'x': -0.015037973158173746, 'y': -0.043146072580835415, 'z': 0.8781815347152668, 'w': -0.47614034439948344}}"""
"2022/09/21 12:49:19.901454932,""{'stamp': {'secs': 1663757359, 'nsecs': 890756691}, 'frame_id': 'map'}"",""{'position': {'x': -2.355661153793335, 'y': -0.9083479046821594, 'z': 4.419376373291016}, 'orientation': {'x': -0.037895520926291476, 'y': 0.0056093569955402624, 'z': 0.8787844875300638, 'w': -0.47567892070198625}}"""
"2022/09/21 12:49:20.65204654,""{'stamp': {'secs': 1663757360, 'nsecs': 58306969}, 'frame_id': 'map'}"",""{'position': {'x': -2.409933090209961, 'y': -0.8239861130714417, 'z': 4.474423408508301}, 'orientation': {'x': -0.01597375436730506, 'y': -0.008200555778702202, 'z': 0.8803737819671367, 'w': -0.4739405107148815}}"""
"2022/09/21 12:49:20.349767987,""{'stamp': {'secs': 1663757360, 'nsecs': 224979135}, 'frame_id': 'map'}"",""{'position': {'x': -2.4682207107543945, 'y': -0.7213475108146667, 'z': 4.520162582397461}, 'orientation': {'x': -0.001866463802045728, 'y': 0.00524601905733159, 'z': 0.8809606136123782, 'w': -0.4731567689933972}}"""
"2022/09/21 12:49:20.397855431,""{'stamp': {'secs': 1663757360, 'nsecs': 391320524}, 'frame_id': 'map'}"",""{'position': {'x': -2.523024797439575, 'y': -0.6105818748474121, 'z': 4.557076930999756}, 'orientation': {'x': -0.008718100309897505, 'y': 0.0010011638127895935, 'z': 0.8815864943127649, 'w': -0.471941001001252}}"""
"2022/09/21 12:49:20.568276487,""{'stamp': {'secs': 1663757360, 'nsecs': 557606783}, 'frame_id': 'map'}"",""{'position': {'x': -2.5956766605377197, 'y': -0.4737198054790497, 'z': 4.587512969970703}, 'orientation': {'x': -0.056171855092333835, 'y': 0.03091382303056596, 'z': 0.8800297372427424, 'w': -0.47057074373589003}}"""
"2022/09/21 12:49:20.736152857,""{'stamp': {'secs': 1663757360, 'nsecs': 721605061}, 'frame_id': 'map'}"",""{'position': {'x': -2.6934092044830322, 'y': -0.3243774473667145, 'z': 4.608542442321777}, 'orientation': {'x': -0.06721554507534981, 'y': 0.043923355297785405, 'z': 0.8797873296435319, 'w': -0.4685371372218152}}"""
"2022/09/21 12:49:20.898543357,""{'stamp': {'secs': 1663757360, 'nsecs': 888361598}, 'frame_id': 'map'}"",""{'position': {'x': -2.837358236312866, 'y': -0.14038510620594025, 'z': 4.630614280700684}, 'orientation': {'x': -0.0769751575614965, 'y': 0.06483950463674697, 'z': 0.8799235061110706, 'w': -0.4643332841107931}}"""
"2022/09/21 12:49:21.64478764,""{'stamp': {'secs': 1663757361, 'nsecs': 55436542}, 'frame_id': 'map'}"",""{'position': {'x': -3.0120694637298584, 'y': 0.06311327964067459, 'z': 4.652098178863525}, 'orientation': {'x': -0.050183056605095054, 'y': -0.001782010901889132, 'z': 0.8839330833238818, 'w': -0.46490953689705833}}"""
"2022/09/21 12:49:21.230790949,""{'stamp': {'secs': 1663757361, 'nsecs': 221524264}, 'frame_id': 'map'}"",""{'position': {'x': -3.1942968368530273, 'y': 0.2696398198604584, 'z': 4.658783912658691}, 'orientation': {'x': -0.038650714743354755, 'y': -0.003379916466948562, 'z': 0.8848254164005545, 'w': -0.46430472962092695}}"""
"2022/09/21 12:49:21.485730634,""{'stamp': {'secs': 1663757361, 'nsecs': 388425653}, 'frame_id': 'map'}"",""{'position': {'x': -3.0927088260650635, 'y': -0.4788037836551666, 'z': 4.686645030975342}, 'orientation': {'x': -0.017866806409952186, 'y': -0.0029270077499395125, 'z': 0.8861839989888789, 'w': -0.4629796959240172}}"""
"2022/09/21 12:49:21.575477171,""{'stamp': {'secs': 1663757361, 'nsecs': 554759542}, 'frame_id': 'map'}"",""{'position': {'x': -2.746082305908203, 'y': -2.1204428672790527, 'z': 4.728480339050293}, 'orientation': {'x': 0.010235825776204212, 'y': 0.052278445130730794, 'z': 0.885792981601819, 'w': -0.46101310289907466}}"""
"2022/09/21 12:49:21.733064375,""{'stamp': {'secs': 1663757361, 'nsecs': 721329782}, 'frame_id': 'map'}"",""{'position': {'x': -2.5414373874664307, 'y': -3.243618965148926, 'z': 4.745110034942627}, 'orientation': {'x': 0.03144671724642557, 'y': 0.0734200682554245, 'z': 0.8848859182015918, 'w': -0.4589091111479866}}"""
"2022/09/21 12:49:21.894870542,""{'stamp': {'secs': 1663757361, 'nsecs': 885272912}, 'frame_id': 'map'}"",""{'position': {'x': -2.444988489151001, 'y': -3.9320180416107178, 'z': 4.752551555633545}, 'orientation': {'x': 0.057707639948160055, 'y': 0.0587358522418441, 'z': 0.8841548811141703, 'w': -0.45988063815301117}}"""
"2022/09/21 12:49:22.68416690,""{'stamp': {'secs': 1663757362, 'nsecs': 54535171}, 'frame_id': 'map'}"",""{'position': {'x': -2.420112133026123, 'y': -4.2556681632995605, 'z': 4.768696308135986}, 'orientation': {'x': 0.030934040346961022, 'y': -0.0037029773291406367, 'z': 0.8846147243048484, 'w': -0.4652807241918937}}"""
"2022/09/21 12:49:22.226297930,""{'stamp': {'secs': 1663757362, 'nsecs': 217064078}, 'frame_id': 'map'}"",""{'position': {'x': -2.417285919189453, 'y': -4.377269744873047, 'z': 4.773237705230713}, 'orientation': {'x': 0.023469592777664017, 'y': -0.0338203760588153, 'z': 0.8836227139314475, 'w': -0.46638653105627403}}"""
"2022/09/21 12:49:22.526871726,""{'stamp': {'secs': 1663757362, 'nsecs': 384067634}, 'frame_id': 'map'}"",""{'position': {'x': -2.4213204383850098, 'y': -4.405366897583008, 'z': 4.751073360443115}, 'orientation': {'x': -0.010533790824286128, 'y': -0.07234858736497832, 'z': 0.8802870648263256, 'w': -0.46877438183208303}}"""
"2022/09/21 12:49:22.575677597,""{'stamp': {'secs': 1663757362, 'nsecs': 552022671}, 'frame_id': 'map'}"",""{'position': {'x': -2.4240970611572266, 'y': -4.392427921295166, 'z': 4.712071895599365}, 'orientation': {'x': -0.019948431355371152, 'y': -0.059172972807023674, 'z': 0.8787641516756572, 'w': -0.4731535869063347}}"""
"2022/09/21 12:49:22.722211745,""{'stamp': {'secs': 1663757362, 'nsecs': 716306523}, 'frame_id': 'map'}"",""{'position': {'x': -2.4315292835235596, 'y': -4.352680683135986, 'z': 4.662384033203125}, 'orientation': {'x': -0.02134805707161108, 'y': -0.04972506919284044, 'z': 0.878133445161116, 'w': -0.47534558127711357}}"""
"2022/09/21 12:49:22.890489115,""{'stamp': {'secs': 1663757362, 'nsecs': 884739967}, 'frame_id': 'map'}"",""{'position': {'x': -2.4345779418945312, 'y': -4.302772521972656, 'z': 4.6165385246276855}, 'orientation': {'x': -0.025386799903591755, 'y': -0.04399040039705415, 'z': 0.87656503448748, 'w': -0.4785960726748192}}"""
"2022/09/21 12:49:23.62358337,""{'stamp': {'secs': 1663757363, 'nsecs': 50770689}, 'frame_id': 'map'}"",""{'position': {'x': -2.439847230911255, 'y': -4.253002166748047, 'z': 4.572876453399658}, 'orientation': {'x': -0.020263511975215483, 'y': -0.04258091100117366, 'z': 0.8758187823877461, 'w': -0.48033100554692165}}"""
"2022/09/21 12:49:23.223236096,""{'stamp': {'secs': 1663757363, 'nsecs': 217118800}, 'frame_id': 'map'}"",""{'position': {'x': -2.444533586502075, 'y': -4.196793079376221, 'z': 4.521722316741943}, 'orientation': {'x': -0.01902330276220096, 'y': -0.037429824592026414, 'z': 0.8761003444092231, 'w': -0.48029718270099164}}"""
"2022/09/21 12:49:23.385808800,""{'stamp': {'secs': 1663757363, 'nsecs': 380908096}, 'frame_id': 'map'}"",""{'position': {'x': -2.4488561153411865, 'y': -4.141790390014648, 'z': 4.471804141998291}, 'orientation': {'x': -0.017846177338603504, 'y': -0.021230341746900777, 'z': 0.8771242810203711, 'w': -0.4794619796774755}}"""
"2022/09/21 12:49:23.599350633,""{'stamp': {'secs': 1663757363, 'nsecs': 547563392}, 'frame_id': 'map'}"",""{'position': {'x': -2.4569084644317627, 'y': -4.075656414031982, 'z': 4.421252727508545}, 'orientation': {'x': -0.016753808239544688, 'y': -0.006911091387757621, 'z': 0.8774114696461243, 'w': -0.4793963148874955}}"""
"2022/09/21 12:49:23.723358781,""{'stamp': {'secs': 1663757363, 'nsecs': 715290540}, 'frame_id': 'map'}"",""{'position': {'x': -2.4693682193756104, 'y': -3.996835231781006, 'z': 4.370808124542236}, 'orientation': {'x': -0.01680282271945708, 'y': -0.010736001854546024, 'z': 0.8775676447932814, 'w': -0.4790380877485772}}"""
"2022/09/21 12:49:23.885620170,""{'stamp': {'secs': 1663757363, 'nsecs': 881054559}, 'frame_id': 'map'}"",""{'position': {'x': -2.4832236766815186, 'y': -3.9157333374023438, 'z': 4.321519374847412}, 'orientation': {'x': -0.02170166419153367, 'y': -0.014496417435672882, 'z': 0.878409717753105, 'w': -0.47719528001771117}}"""
"2022/09/21 12:49:24.56594374,""{'stamp': {'secs': 1663757364, 'nsecs': 45344262}, 'frame_id': 'map'}"",""{'position': {'x': -2.4994425773620605, 'y': -3.828923225402832, 'z': 4.2574663162231445}, 'orientation': {'x': -0.0240920795866109, 'y': -0.021884884856134934, 'z': 0.8796247060285527, 'w': -0.4745536209201696}}"""
"2022/09/21 12:49:24.222852522,""{'stamp': {'secs': 1663757364, 'nsecs': 211867929}, 'frame_id': 'map'}"",""{'position': {'x': -2.5131618976593018, 'y': -3.7507920265197754, 'z': 4.207918643951416}, 'orientation': {'x': -0.023263262474333555, 'y': -0.023388167448419987, 'z': 0.8801797800234411, 'w': -0.4734928690368474}}"""
"2022/09/21 12:49:24.389113355,""{'stamp': {'secs': 1663757364, 'nsecs': 381015392}, 'frame_id': 'map'}"",""{'position': {'x': -2.528284788131714, 'y': -3.6643571853637695, 'z': 4.1548285484313965}, 'orientation': {'x': -0.025805396409217956, 'y': -0.025934512096308912, 'z': 0.8809291509899648, 'w': -0.47183186173703306}}"""
"2022/09/21 12:49:24.604727410,""{'stamp': {'secs': 1663757364, 'nsecs': 546366836}, 'frame_id': 'map'}"",""{'position': {'x': -2.5444955825805664, 'y': -3.5801169872283936, 'z': 4.106581687927246}, 'orientation': {'x': -0.027013901380868094, 'y': -0.03385003064728201, 'z': 0.8808033637205841, 'w': -0.47149765830176593}}"""
"2022/09/21 12:49:24.722096318,""{'stamp': {'secs': 1663757364, 'nsecs': 713717244}, 'frame_id': 'map'}"",""{'position': {'x': -2.556929111480713, 'y': -3.5117409229278564, 'z': 4.059741497039795}, 'orientation': {'x': -0.02874596513918538, 'y': -0.03406434523169025, 'z': 0.8811245648530855, 'w': -0.47077892809410965}}"""
"2022/09/21 12:49:24.885011262,""{'stamp': {'secs': 1663757364, 'nsecs': 878024132}, 'frame_id': 'map'}"",""{'position': {'x': -2.5722196102142334, 'y': -3.448910713195801, 'z': 4.025877952575684}, 'orientation': {'x': -0.03020398482012877, 'y': -0.04059239996864415, 'z': 0.8811298332091494, 'w': -0.4701597487426361}}"""
"2022/09/21 12:49:25.62816429,""{'stamp': {'secs': 1663757365, 'nsecs': 44571410}, 'frame_id': 'map'}"",""{'position': {'x': -2.583810567855835, 'y': -3.412510395050049, 'z': 3.996417999267578}, 'orientation': {'x': -0.02554099974649718, 'y': -0.03501096130897528, 'z': 0.8815506484181064, 'w': -0.4700962545153544}}"""
"2022/09/21 12:49:25.221086317,""{'stamp': {'secs': 1663757365, 'nsecs': 211520651}, 'frame_id': 'map'}"",""{'position': {'x': -2.5960659980773926, 'y': -3.383301258087158, 'z': 3.968686819076538}, 'orientation': {'x': -0.026629353535054693, 'y': -0.03686375158676562, 'z': 0.8815830171977628, 'w': -0.4698333424743435}}"""
"2022/09/21 12:49:25.385609114,""{'stamp': {'secs': 1663757365, 'nsecs': 377471910}, 'frame_id': 'map'}"",""{'position': {'x': -2.6144466400146484, 'y': -3.3455471992492676, 'z': 3.9363491535186768}, 'orientation': {'x': -0.027175809816511708, 'y': -0.040583257065967576, 'z': 0.8815556006728065, 'w': -0.4695468492715907}}"""
"2022/09/21 12:49:25.550274188,""{'stamp': {'secs': 1663757365, 'nsecs': 540347965}, 'frame_id': 'map'}"",""{'position': {'x': -2.630211591720581, 'y': -3.3145477771759033, 'z': 3.9008564949035645}, 'orientation': {'x': -0.025928626617157648, 'y': -0.03918074165642662, 'z': 0.8817191725918773, 'w': -0.46942938600479084}}"""
"2022/09/21 12:49:25.719939947,""{'stamp': {'secs': 1663757365, 'nsecs': 709359280}, 'frame_id': 'map'}"",""{'position': {'x': -2.644698143005371, 'y': -3.2903542518615723, 'z': 3.870236873626709}, 'orientation': {'x': -0.025834662852580646, 'y': -0.04012257357249728, 'z': 0.8816421492262236, 'w': -0.4694997501683798}}"""
"2022/09/21 12:49:25.883795780,""{'stamp': {'secs': 1663757365, 'nsecs': 875498780}, 'frame_id': 'map'}"",""{'position': {'x': -2.661266565322876, 'y': -3.2557168006896973, 'z': 3.8449113368988037}, 'orientation': {'x': -0.02526921809878046, 'y': -0.041380375143498044, 'z': 0.8820068248329641, 'w': -0.46873569102515006}}"""
"2022/09/21 12:49:26.46860798,""{'stamp': {'secs': 1663757366, 'nsecs': 40341335}, 'frame_id': 'map'}"",""{'position': {'x': -2.6766409873962402, 'y': -3.2305750846862793, 'z': 3.8199288845062256}, 'orientation': {'x': -0.020941437448068135, 'y': -0.04103381741326116, 'z': 0.8823500898406611, 'w': -0.4683333361358407}}"""
"2022/09/21 12:49:26.213784669,""{'stamp': {'secs': 1663757366, 'nsecs': 205511706}, 'frame_id': 'map'}"",""{'position': {'x': -2.6872854232788086, 'y': -3.2242345809936523, 'z': 3.7922606468200684}, 'orientation': {'x': -0.02306358000288524, 'y': -0.03876486684836848, 'z': 0.8825769873996194, 'w': -0.46799938558166465}}"""
"2022/09/21 12:49:26.379683576,""{'stamp': {'secs': 1663757366, 'nsecs': 374032724}, 'frame_id': 'map'}"",""{'position': {'x': -2.6941075325012207, 'y': -3.224757194519043, 'z': 3.7608139514923096}, 'orientation': {'x': -0.021200672176546517, 'y': -0.039858310198155944, 'z': 0.8824341306565918, 'w': -0.4682648053601621}}"""
"2022/09/21 12:49:26.545418817,""{'stamp': {'secs': 1663757366, 'nsecs': 538782557}, 'frame_id': 'map'}"",""{'position': {'x': -2.6998538970947266, 'y': -3.2287328243255615, 'z': 3.7298896312713623}, 'orientation': {'x': -0.022743987036072208, 'y': -0.0431064071280306, 'z': 0.8812996007149514, 'w': -0.47003786005674264}}"""
"2022/09/21 12:49:26.728111057,""{'stamp': {'secs': 1663757366, 'nsecs': 706945779}, 'frame_id': 'map'}"",""{'position': {'x': -2.699928045272827, 'y': -3.2461671829223633, 'z': 3.703169584274292}, 'orientation': {'x': -0.021323352432938616, 'y': -0.040738530007148756, 'z': 0.8810852839902734, 'w': -0.4707168879331016}}"""
"2022/09/21 12:49:26.876908076,""{'stamp': {'secs': 1663757366, 'nsecs': 870751890}, 'frame_id': 'map'}"",""{'position': {'x': -2.6923398971557617, 'y': -3.2730844020843506, 'z': 3.6779701709747314}, 'orientation': {'x': -0.02517031920166063, 'y': -0.03398745044685178, 'z': 0.8802146565405838, 'w': -0.4726876324226225}}"""
"2022/09/21 12:49:27.45705261,""{'stamp': {'secs': 1663757367, 'nsecs': 38015520}, 'frame_id': 'map'}"",""{'position': {'x': -2.678318977355957, 'y': -3.3122551441192627, 'z': 3.640700101852417}, 'orientation': {'x': -0.021930853485379848, 'y': -0.032634005493506396, 'z': 0.8800253539704972, 'w': -0.4732962961353926}}"""
"2022/09/21 12:49:27.220354612,""{'stamp': {'secs': 1663757367, 'nsecs': 206494335}, 'frame_id': 'map'}"",""{'position': {'x': -2.6603550910949707, 'y': -3.355844736099243, 'z': 3.605185031890869}, 'orientation': {'x': -0.02439344280667202, 'y': -0.02993464044563609, 'z': 0.8798577781008179, 'w': -0.473665839703136}}"""
"2022/09/21 12:49:27.375790723,""{'stamp': {'secs': 1663757367, 'nsecs': 371270742}, 'frame_id': 'map'}"",""{'position': {'x': -2.6405744552612305, 'y': -3.3995237350463867, 'z': 3.575608491897583}, 'orientation': {'x': -0.024060008551390205, 'y': -0.02905606304664618, 'z': 0.879942514339749, 'w': -0.47358009193984074}}"""
"2022/09/21 12:49:27.541392427,""{'stamp': {'secs': 1663757367, 'nsecs': 538323909}, 'frame_id': 'map'}"",""{'position': {'x': -2.6163737773895264, 'y': -3.4479920864105225, 'z': 3.546497344970703}, 'orientation': {'x': -0.022933021578544138, 'y': -0.025398971781732792, 'z': 0.8801351043640195, 'w': -0.4734884014709052}}"""
"2022/09/21 12:49:27.790836242,""{'stamp': {'secs': 1663757367, 'nsecs': 701769483}, 'frame_id': 'map'}"",""{'position': {'x': -2.595813751220703, 'y': -3.4976019859313965, 'z': 3.527675151824951}, 'orientation': {'x': -0.026926160285665076, 'y': -0.02426301535036994, 'z': 0.8805332234950535, 'w': -0.4725966584501118}}"""
"2022/09/21 12:49:27.871863260,""{'stamp': {'secs': 1663757367, 'nsecs': 867759408}, 'frame_id': 'map'}"",""{'position': {'x': -2.575927257537842, 'y': -3.5539560317993164, 'z': 3.5156898498535156}, 'orientation': {'x': -0.02273451465534648, 'y': -0.02393921621862539, 'z': 0.8802095356984898, 'w': -0.4734357179102667}}"""
"2022/09/21 12:49:28.40152075,""{'stamp': {'secs': 1663757368, 'nsecs': 34951445}, 'frame_id': 'map'}"",""{'position': {'x': -2.5571024417877197, 'y': -3.6078271865844727, 'z': 3.507366418838501}, 'orientation': {'x': -0.01971602819968989, 'y': -0.017084437259858618, 'z': 0.8797543708079965, 'w': -0.47471232487823734}}"""
"2022/09/21 12:49:28.216332353,""{'stamp': {'secs': 1663757368, 'nsecs': 201523186}, 'frame_id': 'map'}"",""{'position': {'x': -2.5378904342651367, 'y': -3.6530988216400146, 'z': 3.499614953994751}, 'orientation': {'x': -0.016781167759242058, 'y': -0.018016353018523234, 'z': 0.8802815857360192, 'w': -0.4738124475156813}}"""
"2022/09/21 12:49:28.375952760,""{'stamp': {'secs': 1663757368, 'nsecs': 368074371}, 'frame_id': 'map'}"",""{'position': {'x': -2.5180487632751465, 'y': -3.6927335262298584, 'z': 3.491941213607788}, 'orientation': {'x': -0.020482766713568423, 'y': -0.01939073347220868, 'z': 0.8814690099725409, 'w': -0.4713989714559777}}"""
"2022/09/21 12:49:28.548001334,""{'stamp': {'secs': 1663757368, 'nsecs': 534946056}, 'frame_id': 'map'}"",""{'position': {'x': -2.499281883239746, 'y': -3.713454484939575, 'z': 3.489807605743408}, 'orientation': {'x': 0.002717570840065722, 'y': 0.0580315531727406, 'z': 0.8810374473172136, 'w': -0.46946575873505575}}"""
"2022/09/21 12:49:28.704669130,""{'stamp': {'secs': 1663757368, 'nsecs': 699161278}, 'frame_id': 'map'}"",""{'position': {'x': -2.487983465194702, 'y': -3.719590663909912, 'z': 3.4925365447998047}, 'orientation': {'x': -0.001972070798159998, 'y': 0.035892275948212565, 'z': 0.8820156124508786, 'w': -0.46984725093435203}}"""
"2022/09/21 12:49:28.875337334,""{'stamp': {'secs': 1663757368, 'nsecs': 864852352}, 'frame_id': 'map'}"",""{'position': {'x': -2.47023606300354, 'y': -3.711195230484009, 'z': 3.495166301727295}, 'orientation': {'x': -0.018278689121202934, 'y': -0.026840307731474826, 'z': 0.8836831525122122, 'w': -0.4669579580283848}}"""
"2022/09/21 12:49:29.45511889,""{'stamp': {'secs': 1663757369, 'nsecs': 31462111}, 'frame_id': 'map'}"",""{'position': {'x': -2.452549695968628, 'y': -3.6984357833862305, 'z': 3.504518985748291}, 'orientation': {'x': -0.02150787401105637, 'y': -0.022336844487030886, 'z': 0.8844523114241116, 'w': -0.46559916470581775}}"""
"2022/09/21 12:49:29.208500185,""{'stamp': {'secs': 1663757369, 'nsecs': 198272815}, 'frame_id': 'map'}"",""{'position': {'x': -2.43367075920105, 'y': -3.679945230484009, 'z': 3.5111727714538574}, 'orientation': {'x': -0.02569559850273831, 'y': -0.021625376255459294, 'z': 0.884084811978521, 'w': -0.4661183085123507}}"""
"2022/09/21 12:49:29.375581574,""{'stamp': {'secs': 1663757369, 'nsecs': 364675944}, 'frame_id': 'map'}"",""{'position': {'x': -2.40875244140625, 'y': -3.642756223678589, 'z': 3.5144729614257812}, 'orientation': {'x': -0.02618335374353196, 'y': -0.026140341297431428, 'z': 0.884268698678574, 'w': -0.4655106773973692}}"""
"2022/09/21 12:49:29.540458222,""{'stamp': {'secs': 1663757369, 'nsecs': 531254963}, 'frame_id': 'map'}"",""{'position': {'x': -2.3820927143096924, 'y': -3.600914239883423, 'z': 3.5196526050567627}, 'orientation': {'x': -0.027974601255636965, 'y': -0.024249906445712097, 'z': 0.8832042167991586, 'w': -0.46752498065482606}}"""
"2022/09/21 12:49:29.700499463,""{'stamp': {'secs': 1663757369, 'nsecs': 696431759}, 'frame_id': 'map'}"",""{'position': {'x': -2.354051113128662, 'y': -3.555504560470581, 'z': 3.539506435394287}, 'orientation': {'x': -0.030748816143012336, 'y': -0.025047826630453296, 'z': 0.882441822456445, 'w': -0.46874685994000537}}"""
"2022/09/21 12:49:29.889785926,""{'stamp': {'secs': 1663757369, 'nsecs': 864844889}, 'frame_id': 'map'}"",""{'position': {'x': -2.3288848400115967, 'y': -3.510556936264038, 'z': 3.5812270641326904}, 'orientation': {'x': -0.03244015517968372, 'y': -0.028184735728780785, 'z': 0.8808314124482681, 'w': -0.4714756787202675}}"""
"2022/09/21 12:49:30.41242814,""{'stamp': {'secs': 1663757370, 'nsecs': 28489185}, 'frame_id': 'map'}"",""{'position': {'x': -2.3093643188476562, 'y': -3.4785871505737305, 'z': 3.6360864639282227}, 'orientation': {'x': -0.03419514814067995, 'y': -0.028268615036670924, 'z': 0.8794984551438383, 'w': -0.47382934840193414}}"""
"2022/09/21 12:49:30.199902444,""{'stamp': {'secs': 1663757370, 'nsecs': 194464851}, 'frame_id': 'map'}"",""{'position': {'x': -2.2926697731018066, 'y': -3.4522602558135986, 'z': 3.6962332725524902}, 'orientation': {'x': -0.039329882889693975, 'y': -0.03313877821251388, 'z': 0.878451548500252, 'w': -0.4750556320327829}}"""
"2022/09/21 12:49:30.369557222,""{'stamp': {'secs': 1663757370, 'nsecs': 361677870}, 'frame_id': 'map'}"",""{'position': {'x': -2.2805163860321045, 'y': -3.438416004180908, 'z': 3.7617435455322266}, 'orientation': {'x': -0.04099848123205183, 'y': -0.028368292991943694, 'z': 0.877444196673993, 'w': -0.4770809145442768}}"""
"2022/09/21 12:49:30.534132351,""{'stamp': {'secs': 1663757370, 'nsecs': 527922425}, 'frame_id': 'map'}"",""{'position': {'x': -2.2699215412139893, 'y': -3.4260218143463135, 'z': 3.8473055362701416}, 'orientation': {'x': -0.042017001314621584, 'y': -0.03052376250867628, 'z': 0.8762406934147644, 'w': -0.47906691619295866}}"""
"2022/09/21 12:49:30.699932221,""{'stamp': {'secs': 1663757370, 'nsecs': 694055721}, 'frame_id': 'map'}"",""{'position': {'x': -2.2672836780548096, 'y': -3.424898624420166, 'z': 3.944270133972168}, 'orientation': {'x': -0.043403553605289046, 'y': -0.0315594054069981, 'z': 0.8758131347100456, 'w': -0.4796576674951116}}"""
"2022/09/21 12:49:30.976356314,""{'stamp': {'secs': 1663757370, 'nsecs': 864851444}, 'frame_id': 'map'}"",""{'position': {'x': -2.2597157955169678, 'y': -3.421123504638672, 'z': 4.0390472412109375}, 'orientation': {'x': -0.037699195308299425, 'y': -0.030592349589910427, 'z': 0.8757073250468591, 'w': -0.48039534271117357}}"""
"2022/09/21 12:49:31.45261758,""{'stamp': {'secs': 1663757371, 'nsecs': 27260129}, 'frame_id': 'map'}"",""{'position': {'x': -2.254164457321167, 'y': -3.4175031185150146, 'z': 4.131976127624512}, 'orientation': {'x': -0.03984356439880545, 'y': -0.029976457034076223, 'z': 0.8759687619481722, 'w': -0.47978408696721997}}"""
"2022/09/21 12:49:31.197660295,""{'stamp': {'secs': 1663757371, 'nsecs': 191695277}, 'frame_id': 'map'}"",""{'position': {'x': -2.254504442214966, 'y': -3.4207441806793213, 'z': 4.24606990814209}, 'orientation': {'x': -0.04178071620370189, 'y': -0.02679801732026119, 'z': 0.8762703015758433, 'w': -0.4792564716441364}}"""
"2022/09/21 12:49:31.370200628,""{'stamp': {'secs': 1663757371, 'nsecs': 360882443}, 'frame_id': 'map'}"",""{'position': {'x': -2.261037588119507, 'y': -3.434272527694702, 'z': 4.410410404205322}, 'orientation': {'x': -0.03635637531204583, 'y': -0.02388309320349867, 'z': 0.8769708032715187, 'w': -0.478570974226531}}"""
"2022/09/21 12:49:31.545894258,""{'stamp': {'secs': 1663757371, 'nsecs': 528300517}, 'frame_id': 'map'}"",""{'position': {'x': -2.270763397216797, 'y': -3.443397283554077, 'z': 4.592187881469727}, 'orientation': {'x': -0.03398053507097346, 'y': -0.02296335018731477, 'z': 0.8772313129421645, 'w': -0.4783130776604928}}"""
"2022/09/21 12:49:31.697406943,""{'stamp': {'secs': 1663757371, 'nsecs': 690081776}, 'frame_id': 'map'}"",""{'position': {'x': -2.2817575931549072, 'y': -3.448469877243042, 'z': 4.752890586853027}, 'orientation': {'x': -0.03370838957741608, 'y': -0.029879092874932248, 'z': 0.8773301051550741, 'w': -0.4777686246714291}}"""
"2022/09/21 12:49:31.867907147,""{'stamp': {'secs': 1663757371, 'nsecs': 857733591}, 'frame_id': 'map'}"",""{'position': {'x': -2.2971224784851074, 'y': -3.457463502883911, 'z': 4.926801681518555}, 'orientation': {'x': -0.032015996375623544, 'y': -0.035358053777352655, 'z': 0.8776918937026915, 'w': -0.47684569298273755}}"""
"2022/09/21 12:49:32.70458980,""{'stamp': {'secs': 1663757372, 'nsecs': 25067795}, 'frame_id': 'map'}"",""{'position': {'x': -2.313936471939087, 'y': -3.4731993675231934, 'z': 5.104640483856201}, 'orientation': {'x': -0.03369970469244481, 'y': -0.030370722691921672, 'z': 0.8788404796183105, 'w': -0.47495422671526566}}"""
"2022/09/21 12:49:32.194395980,""{'stamp': {'secs': 1663757372, 'nsecs': 190089924}, 'frame_id': 'map'}"",""{'position': {'x': -2.3303112983703613, 'y': -3.4888033866882324, 'z': 5.271000385284424}, 'orientation': {'x': -0.029598849712309562, 'y': -0.029973107553231532, 'z': 0.8798668818200962, 'w': -0.47334956975191034}}"""
"2022/09/21 12:49:32.365660202,""{'stamp': {'secs': 1663757372, 'nsecs': 354466387}, 'frame_id': 'map'}"",""{'position': {'x': -2.3492813110351562, 'y': -3.505535125732422, 'z': 5.443680286407471}, 'orientation': {'x': -0.030179845212644156, 'y': -0.0245193515775145, 'z': 0.8804189212418919, 'w': -0.4725997773169015}}"""
"2022/09/21 12:49:32.542077369,""{'stamp': {'secs': 1663757372, 'nsecs': 524561720}, 'frame_id': 'map'}"",""{'position': {'x': -2.3676369190216064, 'y': -3.5153799057006836, 'z': 5.613917350769043}, 'orientation': {'x': -0.026313533369727898, 'y': -0.030454610066982035, 'z': 0.8812417963122186, 'w': -0.4709492224355179}}"""
"2022/09/21 12:49:32.695059868,""{'stamp': {'secs': 1663757372, 'nsecs': 687608572}, 'frame_id': 'map'}"",""{'position': {'x': -2.3833463191986084, 'y': -3.527418375015259, 'z': 5.776206016540527}, 'orientation': {'x': -0.026909613413389162, 'y': -0.0270780866219889, 'z': 0.8816247215043643, 'w': -0.47040479051987844}}"""
"2022/09/21 12:49:32.868363628,""{'stamp': {'secs': 1663757372, 'nsecs': 855437887}, 'frame_id': 'map'}"",""{'position': {'x': -2.3960440158843994, 'y': -3.5362095832824707, 'z': 5.941216468811035}, 'orientation': {'x': -0.026547698214286073, 'y': -0.027569424256156813, 'z': 0.8817137777952679, 'w': -0.47022967036431573}}"""
"2022/09/21 12:49:33.146357572,""{'stamp': {'secs': 1663757373, 'nsecs': 21582905}, 'frame_id': 'map'}"",""{'position': {'x': -2.404221773147583, 'y': -3.55132794380188, 'z': 6.075307846069336}, 'orientation': {'x': -0.02633501311594477, 'y': -0.03336345318375784, 'z': 0.8812730903472379, 'w': -0.4706923584672682}}"""
"2022/09/21 12:49:33.193042831,""{'stamp': {'secs': 1663757373, 'nsecs': 188108757}, 'frame_id': 'map'}"",""{'position': {'x': -2.4074645042419434, 'y': -3.566737413406372, 'z': 6.218689918518066}, 'orientation': {'x': -0.02550940475663769, 'y': -0.028168025985071357, 'z': 0.8812675480366587, 'w': -0.47108750624548223}}"""
"2022/09/21 12:49:33.354413016,""{'stamp': {'secs': 1663757373, 'nsecs': 351280146}, 'frame_id': 'map'}"",""{'position': {'x': -2.4056403636932373, 'y': -3.5806100368499756, 'z': 6.3516459465026855}, 'orientation': {'x': -0.03155230300447951, 'y': -0.02172735631769585, 'z': 0.881069331408112, 'w': -0.47143332113751407}}"""
"2022/09/21 12:49:33.529712053,""{'stamp': {'secs': 1663757373, 'nsecs': 520065331}, 'frame_id': 'map'}"",""{'position': {'x': -2.40321683883667, 'y': -3.5956780910491943, 'z': 6.4839019775390625}, 'orientation': {'x': -0.03220689394050855, 'y': -0.022142873865358403, 'z': 0.8810110423166215, 'w': -0.4714785447059663}}"""
"2022/09/21 12:49:33.691732294,""{'stamp': {'secs': 1663757373, 'nsecs': 684610831}, 'frame_id': 'map'}"",""{'position': {'x': -2.4010655879974365, 'y': -3.6166558265686035, 'z': 6.6266350746154785}, 'orientation': {'x': -0.03287152570465081, 'y': -0.02027006054180286, 'z': 0.8807527032086739, 'w': -0.47199920579904553}}"""
"2022/09/21 12:49:33.866834886,""{'stamp': {'secs': 1663757373, 'nsecs': 851767627}, 'frame_id': 'map'}"",""{'position': {'x': -2.4040441513061523, 'y': -3.636883020401001, 'z': 6.796589374542236}, 'orientation': {'x': -0.028612852714606195, 'y': -0.017419429466810188, 'z': 0.8804206703361052, 'w': -0.4730088757019726}}"""
"2022/09/21 12:49:34.22266905,""{'stamp': {'secs': 1663757374, 'nsecs': 17010757}, 'frame_id': 'map'}"",""{'position': {'x': -2.4073939323425293, 'y': -3.662950277328491, 'z': 6.980947971343994}, 'orientation': {'x': -0.031088472326805564, 'y': -0.01907017071628958, 'z': 0.8802367204157793, 'w': -0.4731312069297755}}"""
"2022/09/21 12:49:34.192502738,""{'stamp': {'secs': 1663757374, 'nsecs': 184465090}, 'frame_id': 'map'}"",""{'position': {'x': -2.410114288330078, 'y': -3.6898117065429688, 'z': 7.155740737915039}, 'orientation': {'x': -0.035224271448372736, 'y': -0.01670274272276218, 'z': 0.8801614461443388, 'w': -0.47307110552379883}}"""
"2022/09/21 12:49:34.364338849,""{'stamp': {'secs': 1663757374, 'nsecs': 354196590}, 'frame_id': 'map'}"",""{'position': {'x': -2.4105942249298096, 'y': -3.7176642417907715, 'z': 7.321987628936768}, 'orientation': {'x': -0.030668993963199748, 'y': -0.015594721831746016, 'z': 0.8804046966805195, 'w': -0.4729735144960719}}"""
"2022/09/21 12:49:34.523383164,""{'stamp': {'secs': 1663757374, 'nsecs': 517883053}, 'frame_id': 'map'}"",""{'position': {'x': -2.4150805473327637, 'y': -3.745704174041748, 'z': 7.50534725189209}, 'orientation': {'x': -0.02737880484400836, 'y': -0.01190343827743366, 'z': 0.880607022626796, 'w': -0.4729059741713332}}"""
"2022/09/21 12:49:34.690913275,""{'stamp': {'secs': 1663757374, 'nsecs': 681708941}, 'frame_id': 'map'}"",""{'position': {'x': -2.4166269302368164, 'y': -3.772838830947876, 'z': 7.682426452636719}, 'orientation': {'x': -0.028700155301484957, 'y': -0.014395971946776056, 'z': 0.8807740295140205, 'w': -0.4724470582113224}}"""
"2022/09/21 12:49:34.854590460,""{'stamp': {'secs': 1663757374, 'nsecs': 848396812}, 'frame_id': 'map'}"",""{'position': {'x': -2.4202699661254883, 'y': -3.800687313079834, 'z': 7.872950077056885}, 'orientation': {'x': -0.030698029849101215, 'y': -0.007460083065570366, 'z': 0.8807683607628958, 'w': -0.47249242929374435}}"""
"2022/09/21 12:49:35.18824978,""{'stamp': {'secs': 1663757375, 'nsecs': 15389793}, 'frame_id': 'map'}"",""{'position': {'x': -2.4364023208618164, 'y': -3.8269083499908447, 'z': 8.070286750793457}, 'orientation': {'x': -0.02814711028222558, 'y': -0.007261123598818628, 'z': 0.8810584785946205, 'w': -0.47211346590535863}}"""
"2022/09/21 12:49:35.266777145,""{'stamp': {'secs': 1663757375, 'nsecs': 184197552}, 'frame_id': 'map'}"",""{'position': {'x': -2.4662561416625977, 'y': -3.8484182357788086, 'z': 8.277946472167969}, 'orientation': {'x': -0.027069041312521483, 'y': -0.008246983166514982, 'z': 0.8809406570796082, 'w': -0.4723798972082202}}"""
"2022/09/21 12:49:35.356811756,""{'stamp': {'secs': 1663757375, 'nsecs': 347976163}, 'frame_id': 'map'}"",""{'position': {'x': -2.4910101890563965, 'y': -3.867048740386963, 'z': 8.483231544494629}, 'orientation': {'x': -0.021431725151350278, 'y': -0.008864441082644661, 'z': 0.8812404476130662, 'w': -0.47209898846289516}}"""
"2022/09/21 12:49:35.525805996,""{'stamp': {'secs': 1663757375, 'nsecs': 514898700}, 'frame_id': 'map'}"",""{'position': {'x': -2.5152201652526855, 'y': -3.8852453231811523, 'z': 8.698718070983887}, 'orientation': {'x': -0.024367500104324542, 'y': -0.007227163117086469, 'z': 0.8813554031423798, 'w': -0.4717696740620553}}"""
"2022/09/21 12:49:35.686594904,""{'stamp': {'secs': 1663757375, 'nsecs': 679847848}, 'frame_id': 'map'}"",""{'position': {'x': -2.52595853805542, 'y': -3.900074005126953, 'z': 8.896692276000977}, 'orientation': {'x': -0.024793176030294982, 'y': -0.005662771540582787, 'z': 0.8815033596540772, 'w': -0.4714924110191263}}"""
"2022/09/21 12:49:35.853355867,""{'stamp': {'secs': 1663757375, 'nsecs': 844743533}, 'frame_id': 'map'}"",""{'position': {'x': -2.534485340118408, 'y': -3.912844657897949, 'z': 9.107269287109375}, 'orientation': {'x': -0.022365757266268393, 'y': -0.007892590073722115, 'z': 0.8816166293094503, 'w': -0.4713699533507779}}"""
"2022/09/21 12:49:36.21971403,""{'stamp': {'secs': 1663757376, 'nsecs': 15659811}, 'frame_id': 'map'}"",""{'position': {'x': -2.5546021461486816, 'y': -3.9208178520202637, 'z': 9.323052406311035}, 'orientation': {'x': -0.022733691351234403, 'y': -0.006417589987276515, 'z': 0.8817195519135139, 'w': -0.47118223128751036}}"""
"2022/09/21 12:49:36.186362237,""{'stamp': {'secs': 1663757376, 'nsecs': 177055440}, 'frame_id': 'map'}"",""{'position': {'x': -2.5869410037994385, 'y': -3.9197001457214355, 'z': 9.53566837310791}, 'orientation': {'x': -0.024328077654443173, 'y': -0.006512960402922572, 'z': 0.8818198403395456, 'w': -0.47091360834852625}}"""
"2022/09/21 12:49:36.380538403,""{'stamp': {'secs': 1663757376, 'nsecs': 344328329}, 'frame_id': 'map'}"",""{'position': {'x': -2.625128984451294, 'y': -3.9149603843688965, 'z': 9.764934539794922}, 'orientation': {'x': -0.02113789576277855, 'y': -0.00910326356555361, 'z': 0.8820786219894023, 'w': -0.47053976580223456}}"""
"2022/09/21 12:49:36.521084792,""{'stamp': {'secs': 1663757376, 'nsecs': 509909922}, 'frame_id': 'map'}"",""{'position': {'x': -2.6436357498168945, 'y': -3.9112436771392822, 'z': 9.978837013244629}, 'orientation': {'x': -0.019296054775250194, 'y': -0.011817778759102315, 'z': 0.8819207398948806, 'w': -0.47085443417321693}}"""
"2022/09/21 12:49:36.683757662,""{'stamp': {'secs': 1663757376, 'nsecs': 677713051}, 'frame_id': 'map'}"",""{'position': {'x': -2.6720123291015625, 'y': -3.900705575942993, 'z': 10.202500343322754}, 'orientation': {'x': -0.019100907622655167, 'y': -0.011143884237183028, 'z': 0.8820351264417392, 'w': -0.4706645204738268}}"""
"2022/09/21 12:49:36.847214662,""{'stamp': {'secs': 1663757376, 'nsecs': 841264459}, 'frame_id': 'map'}"",""{'position': {'x': -2.6965630054473877, 'y': -3.8862955570220947, 'z': 10.41223430633545}, 'orientation': {'x': -0.021015262921591026, 'y': -0.008071291394319292, 'z': 0.881753395832868, 'w': -0.47117333830247454}}"""
"2022/09/21 12:49:37.15804440,""{'stamp': {'secs': 1663757377, 'nsecs': 9514644}, 'frame_id': 'map'}"",""{'position': {'x': -2.719228744506836, 'y': -3.8673813343048096, 'z': 10.634439468383789}, 'orientation': {'x': -0.01992491407244658, 'y': -0.011999566677808405, 'z': 0.8817901478847696, 'w': -0.47106822406228843}}"""
"2022/09/21 12:49:37.178558292,""{'stamp': {'secs': 1663757377, 'nsecs': 173673458}, 'frame_id': 'map'}"",""{'position': {'x': -2.724534749984741, 'y': -3.851745128631592, 'z': 10.853577613830566}, 'orientation': {'x': -0.019365599380198946, 'y': -0.01156342022343329, 'z': 0.8817233451298798, 'w': -0.4712274970028111}}"""
"2022/09/21 12:49:37.453805384,""{'stamp': {'secs': 1663757377, 'nsecs': 340910032}, 'frame_id': 'map'}"",""{'position': {'x': -2.714524030685425, 'y': -3.841038465499878, 'z': 11.056655883789062}, 'orientation': {'x': -0.022498203079169374, 'y': -0.011910628924916322, 'z': 0.8819698198999715, 'w': -0.4706180535733435}}"""
"2022/09/21 12:49:37.530806680,""{'stamp': {'secs': 1663757377, 'nsecs': 509917551}, 'frame_id': 'map'}"",""{'position': {'x': -2.7024967670440674, 'y': -3.828275680541992, 'z': 11.27705192565918}, 'orientation': {'x': -0.0240874547108494, 'y': -0.010817582677467177, 'z': 0.8819585034711463, 'w': -0.4705868859788698}}"""
"2022/09/21 12:49:37.683751402,""{'stamp': {'secs': 1663757377, 'nsecs': 673742143}, 'frame_id': 'map'}"",""{'position': {'x': -2.703406810760498, 'y': -3.8125410079956055, 'z': 11.507002830505371}, 'orientation': {'x': -0.025224182215513043, 'y': -0.009823614451244031, 'z': 0.8818180912453324, 'w': -0.4708122662512818}}"""
"2022/09/21 12:49:37.850143828,""{'stamp': {'secs': 1663757377, 'nsecs': 843980662}, 'frame_id': 'map'}"",""{'position': {'x': -2.710008144378662, 'y': -3.794454574584961, 'z': 11.698685646057129}, 'orientation': {'x': -0.01962584003541327, 'y': -0.010558413144895086, 'z': 0.8822064955277844, 'w': -0.47033510070586565}}"""
"2022/09/21 12:49:38.19021717,""{'stamp': {'secs': 1663757378, 'nsecs': 8090791}, 'frame_id': 'map'}"",""{'position': {'x': -2.7200939655303955, 'y': -3.774766206741333, 'z': 11.813209533691406}, 'orientation': {'x': -0.030627816492204606, 'y': -0.011816599305888518, 'z': 0.8818868538286779, 'w': -0.47031680897361194}}"""
"2022/09/21 12:49:38.179949884,""{'stamp': {'secs': 1663757378, 'nsecs': 170862254}, 'frame_id': 'map'}"",""{'position': {'x': -2.7239348888397217, 'y': -3.7562437057495117, 'z': 11.879779815673828}, 'orientation': {'x': -0.024352156675833056, 'y': -0.008510934390759537, 'z': 0.8823244224099179, 'w': -0.46993428417652705}}"""
"2022/09/21 12:49:38.343821013,""{'stamp': {'secs': 1663757378, 'nsecs': 337702180}, 'frame_id': 'map'}"",""{'position': {'x': -2.730276584625244, 'y': -3.7324156761169434, 'z': 11.953100204467773}, 'orientation': {'x': -0.02052152312799803, 'y': -0.011716930570238858, 'z': 0.8828683907102238, 'w': -0.469025577049208}}"""
"2022/09/21 12:49:38.513754346,""{'stamp': {'secs': 1663757378, 'nsecs': 504130309}, 'frame_id': 'map'}"",""{'position': {'x': -2.7372934818267822, 'y': -3.7075703144073486, 'z': 12.046271324157715}, 'orientation': {'x': -0.020070490439656096, 'y': -0.017203563351541135, 'z': 0.8820048860779326, 'w': -0.4704982722298756}}"""
"2022/09/21 12:49:38.680791272,""{'stamp': {'secs': 1663757378, 'nsecs': 670927420}, 'frame_id': 'map'}"",""{'position': {'x': -2.7322933673858643, 'y': -3.691451072692871, 'z': 12.135513305664062}, 'orientation': {'x': -0.019431561153172506, 'y': -0.018965640296389252, 'z': 0.8819016684459294, 'w': -0.4706508859683336}}"""
"2022/09/21 12:49:38.842473568,""{'stamp': {'secs': 1663757378, 'nsecs': 837730791}, 'frame_id': 'map'}"",""{'position': {'x': -2.7177953720092773, 'y': -3.6798884868621826, 'z': 12.218527793884277}, 'orientation': {'x': -0.022641729891233923, 'y': -0.015972475144598305, 'z': 0.8822220266414608, 'w': -0.47001771386315444}}"""
"2022/09/21 12:49:39.15060328,""{'stamp': {'secs': 1663757379, 'nsecs': 4294179}, 'frame_id': 'map'}"",""{'position': {'x': -2.711890935897827, 'y': -3.668728828430176, 'z': 12.292200088500977}, 'orientation': {'x': -0.02176790224450784, 'y': -0.01507487601676757, 'z': 0.8824832106616828, 'w': -0.4695981419862285}}"""
"2022/09/21 12:49:39.178676031,""{'stamp': {'secs': 1663757379, 'nsecs': 171019253}, 'frame_id': 'map'}"",""{'position': {'x': -2.711573839187622, 'y': -3.6596145629882812, 'z': 12.373819351196289}, 'orientation': {'x': -0.02351690952983489, 'y': -0.01647264727167302, 'z': 0.8823622492064565, 'w': -0.4696942368008333}}"""
"2022/09/21 12:49:39.342783346,""{'stamp': {'secs': 1663757379, 'nsecs': 335346383}, 'frame_id': 'map'}"",""{'position': {'x': -2.7067227363586426, 'y': -3.652604103088379, 'z': 12.478909492492676}, 'orientation': {'x': -0.018199821830926922, 'y': -0.014526729251558566, 'z': 0.8827179053876157, 'w': -0.4693259365651209}}"""
"2022/09/21 12:49:39.569926475,""{'stamp': {'secs': 1663757379, 'nsecs': 504254161}, 'frame_id': 'map'}"",""{'position': {'x': -2.694337844848633, 'y': -3.6500184535980225, 'z': 12.585740089416504}, 'orientation': {'x': -0.02645253433466133, 'y': -0.013526580585128003, 'z': 0.8833216168456857, 'w': -0.46782500299595087}}"""
"2022/09/21 12:49:39.673892327,""{'stamp': {'secs': 1663757379, 'nsecs': 667405753}, 'frame_id': 'map'}"",""{'position': {'x': -2.68789005279541, 'y': -3.6464829444885254, 'z': 12.681547164916992}, 'orientation': {'x': -0.027082850332309373, 'y': -0.015919068172817668, 'z': 0.883672657946933, 'w': -0.467050133186078}}"""
"2022/09/21 12:49:39.845039735,""{'stamp': {'secs': 1663757379, 'nsecs': 834954883}, 'frame_id': 'map'}"",""{'position': {'x': -2.677340030670166, 'y': -3.6507480144500732, 'z': 12.786249160766602}, 'orientation': {'x': -0.025913561094448527, 'y': -0.015106017269461055, 'z': 0.883461228281378, 'w': -0.46754327238707977}}"""
"2022/09/21 12:49:40.12021068,""{'stamp': {'secs': 1663757379, 'nsecs': 998166642}, 'frame_id': 'map'}"",""{'position': {'x': -2.6671855449676514, 'y': -3.6572959423065186, 'z': 12.885833740234375}, 'orientation': {'x': -0.026072583129513653, 'y': -0.007616588802070492, 'z': 0.8831140225433453, 'w': -0.4683716265477129}}"""
"2022/09/21 12:49:40.174482771,""{'stamp': {'secs': 1663757380, 'nsecs': 168244179}, 'frame_id': 'map'}"",""{'position': {'x': -2.6518747806549072, 'y': -3.6679790019989014, 'z': 12.995323181152344}, 'orientation': {'x': -0.025092157871097174, 'y': -0.009537162736795233, 'z': 0.8822677138252466, 'w': -0.4699820576293142}}"""
