time,header,pose
2022/10/11 14:15:48.384099526,"{'stamp': {'secs': 1665490548, 'nsecs': 381285800}, 'frame_id': 'map'}","{'position': {'x': -0.01720072329044342, 'y': -0.010825506411492825, 'z': -0.04490561783313751}, 'orientation': {'x': 0.006332781637721778, 'y': -0.002409874809061617, 'z': 0.009879769199984234, 'w': -0.999928291096412}}"
2022/10/11 14:15:48.411662399,"{'stamp': {'secs': 1665490548, 'nsecs': 409826989}, 'frame_id': 'map'}","{'position': {'x': -0.017961865290999413, 'y': -0.01112227514386177, 'z': -0.046400412917137146}, 'orientation': {'x': 0.006327613709695383, 'y': -0.00239968021080579, 'z': 0.009889210094050693, 'w': -0.9999282068027149}}"
2022/10/11 14:15:48.445413976,"{'stamp': {'secs': 1665490548, 'nsecs': 443068700}, 'frame_id': 'map'}","{'position': {'x': -0.018458904698491096, 'y': -0.011229699477553368, 'z': -0.047812797129154205}, 'orientation': {'x': 0.006333739655344765, 'y': -0.002397958610825796, 'z': 0.009891696758112856, 'w': -0.9999281646558664}}"
2022/10/11 14:15:48.486590473,"{'stamp': {'secs': 1665490548, 'nsecs': 481338601}, 'frame_id': 'map'}","{'position': {'x': -0.017895666882395744, 'y': -0.010645612142980099, 'z': -0.04923409968614578}, 'orientation': {'x': 0.006359378274765675, 'y': -0.002382273233098537, 'z': 0.009926341467588862, 'w': -0.9999277431873813}}"
2022/10/11 14:15:48.514934372,"{'stamp': {'secs': 1665490548, 'nsecs': 513433609}, 'frame_id': 'map'}","{'position': {'x': -0.01767011359333992, 'y': -0.010306315496563911, 'z': -0.050455935299396515}, 'orientation': {'x': 0.006371859668825472, 'y': -0.0024018794201901986, 'z': 0.009944211731357455, 'w': -0.9999274060125931}}"
2022/10/11 14:15:48.547561831,"{'stamp': {'secs': 1665490548, 'nsecs': 543568342}, 'frame_id': 'map'}","{'position': {'x': -0.017642388120293617, 'y': -0.010064497590065002, 'z': -0.05171636492013931}, 'orientation': {'x': 0.006386210341471177, 'y': -0.0024015596968315726, 'z': 0.00997055351167675, 'w': -0.9999270266909566}}"
2022/10/11 14:15:48.585306840,"{'stamp': {'secs': 1665490548, 'nsecs': 583152541}, 'frame_id': 'map'}","{'position': {'x': -0.01777951605618, 'y': -0.009904801845550537, 'z': -0.05313524976372719}, 'orientation': {'x': 0.006390807640681405, 'y': -0.0023916630899656088, 'z': 0.009999887718240397, 'w': -0.9999267738098656}}"
2022/10/11 14:15:48.614734268,"{'stamp': {'secs': 1665490548, 'nsecs': 612622348}, 'frame_id': 'map'}","{'position': {'x': -0.018065979704260826, 'y': -0.00981413945555687, 'z': -0.05461937189102173}, 'orientation': {'x': 0.006390888806292014, 'y': -0.002400564471443884, 'z': 0.010033268022260955, 'w': -0.9999263523413804}}"
2022/10/11 14:15:48.647059616,"{'stamp': {'secs': 1665490548, 'nsecs': 642331759}, 'frame_id': 'map'}","{'position': {'x': -0.018496999517083168, 'y': -0.009794970974326134, 'z': -0.056312259286642075}, 'orientation': {'x': 0.006408838424673845, 'y': -0.0024179714491511374, 'z': 0.010051728341908761, 'w': -0.9999260151665923}}"
2022/10/11 14:15:48.682310338,"{'stamp': {'secs': 1665490548, 'nsecs': 676276045}, 'frame_id': 'map'}","{'position': {'x': -0.01920795813202858, 'y': -0.009858435019850731, 'z': -0.058402713388204575}, 'orientation': {'x': 0.0064141230797142785, 'y': -0.0024060730316170322, 'z': 0.010070146514708056, 'w': -0.9999258887260468}}"
2022/10/11 14:15:48.709264981,"{'stamp': {'secs': 1665490548, 'nsecs': 707311867}, 'frame_id': 'map'}","{'position': {'x': -0.019899491220712662, 'y': -0.009954674169421196, 'z': -0.06027483195066452}, 'orientation': {'x': 0.006426290677316021, 'y': -0.0023991797169797234, 'z': 0.010083001303503814, 'w': -0.9999256779918042}}"
2022/10/11 14:15:48.758565950,"{'stamp': {'secs': 1665490548, 'nsecs': 739087038}, 'frame_id': 'map'}","{'position': {'x': -0.020693741738796234, 'y': -0.010092548094689846, 'z': -0.06199970468878746}, 'orientation': {'x': 0.00643590048804876, 'y': -0.002410522816857472, 'z': 0.010085530114414432, 'w': -0.9999255094044102}}"
2022/10/11 14:15:48.781125766,"{'stamp': {'secs': 1665490548, 'nsecs': 775006768}, 'frame_id': 'map'}","{'position': {'x': -0.02158229984343052, 'y': -0.010267800651490688, 'z': -0.06390804797410965}, 'orientation': {'x': 0.006434549483990633, 'y': -0.002423655840707917, 'z': 0.010133998990201953, 'w': -0.9999250879359252}}"
2022/10/11 14:15:48.812422781,"{'stamp': {'secs': 1665490548, 'nsecs': 806619966}, 'frame_id': 'map'}","{'position': {'x': -0.022566601634025574, 'y': -0.010476896539330482, 'z': -0.06574578583240509}, 'orientation': {'x': 0.006476655008833651, 'y': -0.0024024446160141747, 'z': 0.010148623946635238, 'w': -0.9999247086142886}}"
2022/10/11 14:15:48.844049218,"{'stamp': {'secs': 1665490548, 'nsecs': 837778699}, 'frame_id': 'map'}","{'position': {'x': -0.022930368781089783, 'y': -0.01054766308516264, 'z': -0.0670299306511879}, 'orientation': {'x': 0.006475294785152412, 'y': -0.002398206552833052, 'z': 0.010175176461197089, 'w': -0.9999244557331974}}"
2022/10/11 14:15:48.904167769,"{'stamp': {'secs': 1665490548, 'nsecs': 875709425}, 'frame_id': 'map'}","{'position': {'x': -0.021037515252828598, 'y': -0.0101127028465271, 'z': -0.06642016768455505}, 'orientation': {'x': 0.0064897027511703126, 'y': -0.0024559184300623716, 'z': 0.010202150444244162, 'w': -0.9999239499710153}}"
2022/10/11 14:15:48.915950580,"{'stamp': {'secs': 1665490548, 'nsecs': 904287153}, 'frame_id': 'map'}","{'position': {'x': -0.019819913432002068, 'y': -0.009846133179962635, 'z': -0.06623558700084686}, 'orientation': {'x': 0.006486533670361773, 'y': -0.0024935149006592313, 'z': 0.010222928840559975, 'w': -0.9999236549430758}}"
2022/10/11 14:15:48.946478882,"{'stamp': {'secs': 1665490548, 'nsecs': 943414034}, 'frame_id': 'map'}","{'position': {'x': -0.018848270177841187, 'y': -0.009649813175201416, 'z': -0.06621595472097397}, 'orientation': {'x': 0.006475426164781756, 'y': -0.0025337926352203438, 'z': 0.010234645664445985, 'w': -0.9999234863556817}}"
2022/10/11 14:15:48.979887753,"{'stamp': {'secs': 1665490548, 'nsecs': 976809584}, 'frame_id': 'map'}","{'position': {'x': -0.018112363293766975, 'y': -0.009506247006356716, 'z': -0.06635861098766327}, 'orientation': {'x': 0.006468885994636852, 'y': -0.002516043049732813, 'z': 0.010228660811957446, 'w': -0.9999236549430757}}"
2022/10/11 14:15:49.33413131,"{'stamp': {'secs': 1665490549, 'nsecs': 19575177}, 'frame_id': 'map'}","{'position': {'x': -0.017593810334801674, 'y': -0.009406082332134247, 'z': -0.0667617991566658}, 'orientation': {'x': 0.006505024776965293, 'y': -0.002516894712417762, 'z': 0.010250703613728651, 'w': -0.9999231913277422}}"
2022/10/11 14:15:49.59105975,"{'stamp': {'secs': 1665490549, 'nsecs': 51021040}, 'frame_id': 'map'}","{'position': {'x': -0.01728077232837677, 'y': -0.009352460503578186, 'z': -0.06728589534759521}, 'orientation': {'x': 0.006494871173105089, 'y': -0.0025241000125157268, 'z': 0.010250366438940561, 'w': -0.9999231913277422}}"
2022/10/11 14:15:49.97356827,"{'stamp': {'secs': 1665490549, 'nsecs': 89083692}, 'frame_id': 'map'}","{'position': {'x': -0.017149662598967552, 'y': -0.009323966689407825, 'z': -0.06831095367670059}, 'orientation': {'x': 0.006515967152509934, 'y': -0.002549819962183374, 'z': 0.010254707564337218, 'w': -0.9999229805934995}}"
2022/10/11 14:15:49.124863112,"{'stamp': {'secs': 1665490549, 'nsecs': 122120573}, 'frame_id': 'map'}","{'position': {'x': -0.01721869595348835, 'y': -0.009341005235910416, 'z': -0.06928685307502747}, 'orientation': {'x': 0.0065111340943658485, 'y': -0.0025924574263527147, 'z': 0.01032264828413676, 'w': -0.9999222219502264}}"
2022/10/11 14:15:49.189738950,"{'stamp': {'secs': 1665490549, 'nsecs': 157246174}, 'frame_id': 'map'}","{'position': {'x': -0.017440233379602432, 'y': -0.009380048140883446, 'z': -0.07052217423915863}, 'orientation': {'x': 0.00651015697895213, 'y': -0.0025980081333743742, 'z': 0.010293145490179068, 'w': -0.9999224748313175}}"
2022/10/11 14:15:49.205576209,"{'stamp': {'secs': 1665490549, 'nsecs': 191743370}, 'frame_id': 'map'}","{'position': {'x': -0.01781686395406723, 'y': -0.009439104236662388, 'z': -0.07156688719987869}, 'orientation': {'x': 0.0065113249076370365, 'y': -0.002584815181973702, 'z': 0.010335503072932573, 'w': -0.9999220955096808}}"
2022/10/11 14:15:49.227208505,"{'stamp': {'secs': 1665490549, 'nsecs': 222741454}, 'frame_id': 'map'}","{'position': {'x': -0.018322916701436043, 'y': -0.009526247158646584, 'z': -0.07287903130054474}, 'orientation': {'x': 0.006527104786501191, 'y': -0.0025531795269908473, 'z': 0.01034835786172833, 'w': -0.9999218847754383}}"
2022/10/11 14:15:49.265139222,"{'stamp': {'secs': 1665490549, 'nsecs': 252782271}, 'frame_id': 'map'}","{'position': {'x': -0.01844652369618416, 'y': -0.009402453899383545, 'z': -0.07378609478473663}, 'orientation': {'x': 0.006529827703405573, 'y': -0.0025622478495018965, 'z': 0.010341656512815156, 'w': -0.9999219269222868}}"
2022/10/11 14:15:49.301614711,"{'stamp': {'secs': 1665490549, 'nsecs': 287487523}, 'frame_id': 'map'}","{'position': {'x': -0.017045482993125916, 'y': -0.00848713330924511, 'z': -0.07364687323570251}, 'orientation': {'x': 0.006521060171098545, 'y': -0.0025596107080196797, 'z': 0.010369937048166022, 'w': -0.9999217161880443}}"
2022/10/11 14:15:49.324302443,"{'stamp': {'secs': 1665490549, 'nsecs': 319504971}, 'frame_id': 'map'}","{'position': {'x': -0.016208598390221596, 'y': -0.007858754135668278, 'z': -0.07376152276992798}, 'orientation': {'x': 0.006529617627707527, 'y': -0.0025705257539672386, 'z': 0.010339296289298527, 'w': -0.9999219269222868}}"
2022/10/11 14:15:49.355064202,"{'stamp': {'secs': 1665490549, 'nsecs': 350252104}, 'frame_id': 'map'}","{'position': {'x': -0.015591462142765522, 'y': -0.007297313306480646, 'z': -0.07414897531270981}, 'orientation': {'x': 0.006545775346483136, 'y': -0.0025716778775839544, 'z': 0.010362013440645912, 'w': -0.9999216318943472}}"
2022/10/11 14:15:49.386929835,"{'stamp': {'secs': 1665490549, 'nsecs': 385268608}, 'frame_id': 'map'}","{'position': {'x': -0.015161619521677494, 'y': -0.006825300864875317, 'z': -0.0746457502245903}, 'orientation': {'x': 0.006539471923088853, 'y': -0.0025914017795064183, 'z': 0.010369979195014534, 'w': -0.9999215054538017}}"
2022/10/11 14:15:49.420198343,"{'stamp': {'secs': 1665490549, 'nsecs': 417077900}, 'frame_id': 'map'}","{'position': {'x': -0.014918588101863861, 'y': -0.006419617682695389, 'z': -0.07525509595870972}, 'orientation': {'x': 0.006558583707891146, 'y': -0.002637206019578521, 'z': 0.010391600528300515, 'w': -0.9999210418384681}}"
2022/10/11 14:15:49.454955024,"{'stamp': {'secs': 1665490549, 'nsecs': 453092486}, 'frame_id': 'map'}","{'position': {'x': -0.01485135406255722, 'y': -0.006016056519001722, 'z': -0.07616294175386429}, 'orientation': {'x': 0.006571150383464726, 'y': -0.002651351884882244, 'z': 0.010378745739504758, 'w': -0.9999210839853165}}"
2022/10/11 14:15:49.485470521,"{'stamp': {'secs': 1665490549, 'nsecs': 482625513}, 'frame_id': 'map'}","{'position': {'x': -0.01496448926627636, 'y': -0.005759640131145716, 'z': -0.07692433893680573}, 'orientation': {'x': 0.006612389099099112, 'y': -0.002667463834814549, 'z': 0.01041103022546408, 'w': -0.9999204096357404}}"
2022/10/11 14:15:49.541924922,"{'stamp': {'secs': 1665490549, 'nsecs': 513944665}, 'frame_id': 'map'}","{'position': {'x': -0.015215045772492886, 'y': -0.005546648520976305, 'z': -0.07787609845399857}, 'orientation': {'x': 0.006605256897441532, 'y': -0.002652495941328737, 'z': 0.01040483463873293, 'w': -0.999920536076286}}"
2022/10/11 14:15:49.552120300,"{'stamp': {'secs': 1665490549, 'nsecs': 544185630}, 'frame_id': 'map'}","{'position': {'x': -0.015599440783262253, 'y': -0.005372317042201757, 'z': -0.07882854342460632}, 'orientation': {'x': 0.00662232340763816, 'y': -0.0026268650598057952, 'z': 0.010412758246253095, 'w': -0.9999204517825889}}"
2022/10/11 14:15:49.590055195,"{'stamp': {'secs': 1665490549, 'nsecs': 583544364}, 'frame_id': 'map'}","{'position': {'x': -0.016106296330690384, 'y': -0.005223199725151062, 'z': -0.08004400134086609}, 'orientation': {'x': 0.006650131931212872, 'y': -0.002626866212258684, 'z': 0.01042464365753315, 'w': -0.9999201146078007}}"
2022/10/11 14:15:49.617433227,"{'stamp': {'secs': 1665490549, 'nsecs': 614587754}, 'frame_id': 'map'}","{'position': {'x': -0.01672208681702614, 'y': -0.005120079964399338, 'z': -0.08115356415510178}, 'orientation': {'x': 0.006646046979629855, 'y': -0.002616495453346973, 'z': 0.010412126043525372, 'w': -0.9999203253420433}}"
2022/10/11 14:15:49.648400645,"{'stamp': {'secs': 1665490549, 'nsecs': 645505958}, 'frame_id': 'map'}","{'position': {'x': -0.016323037445545197, 'y': -0.004887043032795191, 'z': -0.08201942592859268}, 'orientation': {'x': 0.006656775163573274, 'y': -0.0026183316400713555, 'z': 0.010412336777767983, 'w': -0.9999201989014979}}"
2022/10/11 14:15:49.681674617,"{'stamp': {'secs': 1665490549, 'nsecs': 679527649}, 'frame_id': 'map'}","{'position': {'x': -0.014738940633833408, 'y': -0.0044624535366892815, 'z': -0.0826042965054512}, 'orientation': {'x': 0.006674482108303914, 'y': -0.0026174952885462174, 'z': 0.010418405923953433, 'w': -0.9999200303141038}}"
2022/10/11 14:15:49.715687760,"{'stamp': {'secs': 1665490549, 'nsecs': 711600171}, 'frame_id': 'map'}","{'position': {'x': -0.013741384260356426, 'y': -0.004176477435976267, 'z': -0.08338426053524017}, 'orientation': {'x': 0.0066605771056539856, 'y': -0.0026597315344740703, 'z': 0.010401125716064108, 'w': -0.9999201989014979}}"
2022/10/11 14:15:49.744914250,"{'stamp': {'secs': 1665490549, 'nsecs': 742498245}, 'frame_id': 'map'}","{'position': {'x': -0.012977301143109798, 'y': -0.003935642074793577, 'z': -0.08428125828504562}, 'orientation': {'x': 0.006675768739636385, 'y': -0.0026818978133405142, 'z': 0.010403359499035092, 'w': -0.9999200724609523}}"
2022/10/11 14:15:49.787831423,"{'stamp': {'secs': 1665490549, 'nsecs': 783866077}, 'frame_id': 'map'}","{'position': {'x': -0.012422512285411358, 'y': -0.0037381427828222513, 'z': -0.08540534973144531}, 'orientation': {'x': 0.006677226427904806, 'y': -0.0027065790736829445, 'z': 0.010391136912966947, 'w': -0.9999200724609523}}"
2022/10/11 14:15:49.816192084,"{'stamp': {'secs': 1665490549, 'nsecs': 814480495}, 'frame_id': 'map'}","{'position': {'x': -0.012076119892299175, 'y': -0.0035564617719501257, 'z': -0.08661852031946182}, 'orientation': {'x': 0.006708133732661831, 'y': -0.0027292094617913905, 'z': 0.010403233058489558, 'w': -0.9999196931393157}}"
2022/10/11 14:15:49.848325154,"{'stamp': {'secs': 1665490549, 'nsecs': 844804876}, 'frame_id': 'map'}","{'position': {'x': -0.011920982971787453, 'y': -0.0033921124413609505, 'z': -0.08792554587125778}, 'orientation': {'x': 0.006693140649848589, 'y': -0.00272751502677235, 'z': 0.010392443465270795, 'w': -0.9999199460204067}}"
2022/10/11 14:15:49.881068445,"{'stamp': {'secs': 1665490549, 'nsecs': 879500603}, 'frame_id': 'map'}","{'position': {'x': -0.011967547237873077, 'y': -0.0032098807860165834, 'z': -0.08979308605194092}, 'orientation': {'x': 0.006658256230171728, 'y': -0.00272920287634631, 'z': 0.01039670029697043, 'w': -0.9999200724609523}}"
2022/10/11 14:15:49.967100245,"{'stamp': {'secs': 1665490549, 'nsecs': 910489457}, 'frame_id': 'map'}","{'position': {'x': -0.01217445358633995, 'y': -0.00307853682897985, 'z': -0.09139104932546616}, 'orientation': {'x': 0.006682880855686472, 'y': -0.0027272980363569708, 'z': 0.010400240632245372, 'w': -0.9999199038735582}}"
2022/10/11 14:15:49.969950192,"{'stamp': {'secs': 1665490549, 'nsecs': 943355217}, 'frame_id': 'map'}","{'position': {'x': -0.01252167858183384, 'y': -0.0029482466634362936, 'z': -0.09312322735786438}, 'orientation': {'x': 0.006685441770641889, 'y': -0.002726536923541869, 'z': 0.01042156693759183, 'w': -0.9999196509924672}}"
2022/10/11 14:15:49.984289064,"{'stamp': {'secs': 1665490549, 'nsecs': 979243149}, 'frame_id': 'map'}","{'position': {'x': -0.01311893854290247, 'y': -0.002793271094560623, 'z': -0.09523963928222656}, 'orientation': {'x': 0.006692518489924672, 'y': -0.0027320265505604135, 'z': 0.010426203090928066, 'w': -0.9999195666987701}}"
2022/10/11 14:15:50.17884596,"{'stamp': {'secs': 1665490550, 'nsecs': 10612607}, 'frame_id': 'map'}","{'position': {'x': -0.013573020696640015, 'y': -0.002707228995859623, 'z': -0.0966702401638031}, 'orientation': {'x': 0.006714105578896345, 'y': -0.0027490453162802107, 'z': 0.010429026929778262, 'w': -0.9999193559645276}}"
2022/10/11 14:15:50.52197253,"{'stamp': {'secs': 1665490550, 'nsecs': 46250220}, 'frame_id': 'map'}","{'position': {'x': -0.013807849027216434, 'y': -0.0025802813470363617, 'z': -0.09802389144897461}, 'orientation': {'x': 0.006724497246596185, 'y': -0.002730984897784911, 'z': 0.010448583067487305, 'w': -0.9999191030834365}}"
2022/10/11 14:15:50.88711493,"{'stamp': {'secs': 1665490550, 'nsecs': 78870378}, 'frame_id': 'map'}","{'position': {'x': -0.012639420107007027, 'y': -0.002348182490095496, 'z': -0.09806325286626816}, 'orientation': {'x': 0.0066962069977138826, 'y': -0.0027151302741191007, 'z': 0.01048959195108834, 'w': -0.999918892349194}}"
2022/10/11 14:15:50.117068494,"{'stamp': {'secs': 1665490550, 'nsecs': 111552288}, 'frame_id': 'map'}","{'position': {'x': -0.011971504427492619, 'y': -0.002173279644921422, 'z': -0.09818558394908905}, 'orientation': {'x': 0.006713289806887081, 'y': -0.0027193230623653, 'z': 0.010481036140840727, 'w': -0.9999188502023455}}"
2022/10/11 14:15:50.145745815,"{'stamp': {'secs': 1665490550, 'nsecs': 142298102}, 'frame_id': 'map'}","{'position': {'x': -0.01150425337255001, 'y': -0.001996271312236786, 'z': -0.0986483246088028}, 'orientation': {'x': 0.006708751776682572, 'y': -0.0027257142368152716, 'z': 0.010499370019943, 'w': -0.999918639468103}}"
2022/10/11 14:15:50.185146981,"{'stamp': {'secs': 1665490550, 'nsecs': 179666709}, 'frame_id': 'map'}","{'position': {'x': -0.01121501438319683, 'y': -0.0018341117538511753, 'z': -0.09915710985660553}, 'orientation': {'x': 0.006706365211385643, 'y': -0.00275093319874847, 'z': 0.010467296268226178, 'w': -0.9999190187897395}}"
2022/10/11 14:15:50.283774021,"{'stamp': {'secs': 1665490550, 'nsecs': 210684140}, 'frame_id': 'map'}","{'position': {'x': -0.011100060306489468, 'y': -0.0016860882751643658, 'z': -0.0998954176902771}, 'orientation': {'x': 0.006723520954363102, 'y': -0.0027690635875977417, 'z': 0.010435601838145958, 'w': -0.9999191873771336}}"
2022/10/11 14:15:50.286073325,"{'stamp': {'secs': 1665490550, 'nsecs': 243149667}, 'frame_id': 'map'}","{'position': {'x': -0.011136463843286037, 'y': -0.0015406471211463213, 'z': -0.10075519233942032}, 'orientation': {'x': 0.006729464977092153, 'y': -0.0027777445213019703, 'z': 0.010406099044188322, 'w': -0.9999193559645276}}"
2022/10/11 14:15:50.288412154,"{'stamp': {'secs': 1665490550, 'nsecs': 282993383}, 'frame_id': 'map'}","{'position': {'x': -0.011379876174032688, 'y': -0.0013532430166378617, 'z': -0.10204629600048065}, 'orientation': {'x': 0.006702576769467345, 'y': -0.0027610173261630824, 'z': 0.010418869539287112, 'w': -0.9999194824050731}}"
2022/10/11 14:15:50.325097511,"{'stamp': {'secs': 1665490550, 'nsecs': 320464675}, 'frame_id': 'map'}","{'position': {'x': -0.011725125834345818, 'y': -0.001207223511300981, 'z': -0.10324013233184814}, 'orientation': {'x': 0.006690136699075425, 'y': -0.0027604452156217724, 'z': 0.01038949318587501, 'w': -0.9999198617267098}}"
2022/10/11 14:15:50.351188185,"{'stamp': {'secs': 1665490550, 'nsecs': 350182772}, 'frame_id': 'map'}","{'position': {'x': -0.012199843302369118, 'y': -0.001062914845533669, 'z': -0.1045609787106514}, 'orientation': {'x': 0.006685568705095803, 'y': -0.00275186207577698, 'z': 0.010373350942895376, 'w': -0.9999200724609523}}"
2022/10/11 14:15:50.395789100,"{'stamp': {'secs': 1665490550, 'nsecs': 392550797}, 'frame_id': 'map'}","{'position': {'x': -0.012779745273292065, 'y': -0.0009262138628400862, 'z': -0.10608106851577759}, 'orientation': {'x': 0.006676329490284933, 'y': -0.0027543314530457876, 'z': 0.010344606792210997, 'w': -0.9999204096357404}}"
2022/10/11 14:15:50.434229854,"{'stamp': {'secs': 1665490550, 'nsecs': 429135386}, 'frame_id': 'map'}","{'position': {'x': -0.013449259102344513, 'y': -0.0007779032457619905, 'z': -0.10768122971057892}, 'orientation': {'x': 0.0067078522048846685, 'y': -0.002735399450894174, 'z': 0.01035400553942889, 'w': -0.9999201989014979}}"
2022/10/11 14:15:50.468296604,"{'stamp': {'secs': 1665490550, 'nsecs': 463105481}, 'frame_id': 'map'}","{'position': {'x': -0.013116800226271152, 'y': -0.000653097580652684, 'z': -0.10837681591510773}, 'orientation': {'x': 0.006733682296121275, 'y': -0.002707936827822279, 'z': 0.010343721708392206, 'w': -0.9999201989014979}}"
2022/10/11 14:15:50.503416487,"{'stamp': {'secs': 1665490550, 'nsecs': 501018505}, 'frame_id': 'map'}","{'position': {'x': -0.011639298871159554, 'y': -0.0005110667552798986, 'z': -0.10805478692054749}, 'orientation': {'x': 0.006729257370936012, 'y': -0.002747514858843659, 'z': 0.010391136912966892, 'w': -0.9999196509924673}}"
2022/10/11 14:15:50.536578111,"{'stamp': {'secs': 1665490550, 'nsecs': 532797294}, 'frame_id': 'map'}","{'position': {'x': -0.010744200088083744, 'y': -0.00038226385368034244, 'z': -0.10809411108493805}, 'orientation': {'x': 0.006726119570991601, 'y': -0.0027856707630000504, 'z': 0.010410566610130456, 'w': -0.9999193559645276}}"
2022/10/11 14:15:50.576801940,"{'stamp': {'secs': 1665490550, 'nsecs': 563260753}, 'frame_id': 'map'}","{'position': {'x': -0.010060956701636314, 'y': -0.00023985507141333073, 'z': -0.10813285410404205}, 'orientation': {'x': 0.006719855001723288, 'y': -0.0027895171568350506, 'z': 0.010422452021410566, 'w': -0.9999192716708305}}"
2022/10/11 14:15:50.600814820,"{'stamp': {'secs': 1665490550, 'nsecs': 599527986}, 'frame_id': 'map'}","{'position': {'x': -0.009580178186297417, 'y': -0.00010134789772564545, 'z': -0.10835874080657959}, 'orientation': {'x': 0.00671524239135325, 'y': -0.002852744838227106, 'z': 0.01043657121566166, 'w': -0.9999189766428911}}"
2022/10/11 14:15:50.636967375,"{'stamp': {'secs': 1665490550, 'nsecs': 632890440}, 'frame_id': 'map'}","{'position': {'x': -0.009237405844032764, 'y': 8.869785960996523e-05, 'z': -0.10891681164503098}, 'orientation': {'x': 0.0067173303067158095, 'y': -0.0028345601194559255, 'z': 0.010458614017432866, 'w': -0.9999187659086484}}"
2022/10/11 14:15:50.663354792,"{'stamp': {'secs': 1665490550, 'nsecs': 661423340}, 'frame_id': 'map'}","{'position': {'x': -0.009165884926915169, 'y': 0.0002039958053501323, 'z': -0.10941682755947113}, 'orientation': {'x': 0.006711890399807618, 'y': -0.00286951006431133, 'z': 0.010454483626278877, 'w': -0.9999187659086485}}"
2022/10/11 14:15:50.697724761,"{'stamp': {'secs': 1665490550, 'nsecs': 696083648}, 'frame_id': 'map'}","{'position': {'x': -0.009233715012669563, 'y': 0.00040255056228488684, 'z': -0.11038704216480255}, 'orientation': {'x': 0.006702092739253978, 'y': -0.002890564884684427, 'z': 0.010465399660043118, 'w': -0.999918639468103}}"
2022/10/11 14:15:50.728170753,"{'stamp': {'secs': 1665490550, 'nsecs': 726537474}, 'frame_id': 'map'}","{'position': {'x': -0.009451916441321373, 'y': 0.0005574887036345899, 'z': -0.11135876923799515}, 'orientation': {'x': 0.006700448353617545, 'y': -0.00289889810688844, 'z': 0.010495787537819545, 'w': -0.9999183444401634}}"
2022/10/11 14:15:50.759161615,"{'stamp': {'secs': 1665490550, 'nsecs': 757015842}, 'frame_id': 'map'}","{'position': {'x': -0.009812158532440662, 'y': 0.0007180965621955693, 'z': -0.11221760511398315}, 'orientation': {'x': 0.006708734160616984, 'y': -0.0028908684737026067, 'z': 0.010499159285700388, 'w': -0.9999182601464662}}"
2022/10/11 14:15:50.804149964,"{'stamp': {'secs': 1665490550, 'nsecs': 802406787}, 'frame_id': 'map'}","{'position': {'x': -0.010300432331860065, 'y': 0.0008912413031794131, 'z': -0.11338455975055695}, 'orientation': {'x': 0.006710854509296561, 'y': -0.0029130306366658763, 'z': 0.010494607426061231, 'w': -0.9999181758527693}}"
2022/10/11 14:15:50.836080692,"{'stamp': {'secs': 1665490550, 'nsecs': 835107898}, 'frame_id': 'map'}","{'position': {'x': -0.010890333913266659, 'y': 0.0010805409401655197, 'z': -0.11427175998687744}, 'orientation': {'x': 0.006691184114115372, 'y': -0.002918046440910927, 'z': 0.010463713786102669, 'w': -0.999918639468103}}"
2022/10/11 14:15:50.868796534,"{'stamp': {'secs': 1665490550, 'nsecs': 865050703}, 'frame_id': 'map'}","{'position': {'x': -0.011138779111206532, 'y': 0.0012395133962854743, 'z': -0.1148928627371788}, 'orientation': {'x': 0.006710434522536595, 'y': -0.0029191687653886563, 'z': 0.010485588000479829, 'w': -0.9999182601464662}}"
2022/10/11 14:15:50.901077278,"{'stamp': {'secs': 1665490550, 'nsecs': 899453449}, 'frame_id': 'map'}","{'position': {'x': -0.010084847919642925, 'y': 0.0012996834702789783, 'z': -0.1136784479022026}, 'orientation': {'x': 0.006707847430436985, 'y': -0.002932691647587827, 'z': 0.010461943618465253, 'w': -0.9999184708807088}}"
2022/10/11 14:15:50.930074905,"{'stamp': {'secs': 1665490550, 'nsecs': 929362917}, 'frame_id': 'map'}","{'position': {'x': -0.009487674571573734, 'y': 0.001396425417624414, 'z': -0.11316249519586563}, 'orientation': {'x': 0.006710586810954066, 'y': -0.0029219634636444077, 'z': 0.01045203910906517, 'w': -0.9999185973212545}}"
2022/10/11 14:15:50.962760230,"{'stamp': {'secs': 1665490550, 'nsecs': 959766084}, 'frame_id': 'map'}","{'position': {'x': -0.00907315593212843, 'y': 0.0015304582193493843, 'z': -0.11289082467556}, 'orientation': {'x': 0.006729068204026093, 'y': -0.002901181774605997, 'z': 0.01042312637098669, 'w': -0.9999188502023455}}"
2022/10/11 14:15:50.994888848,"{'stamp': {'secs': 1665490550, 'nsecs': 993939499}, 'frame_id': 'map'}","{'position': {'x': -0.008823835290968418, 'y': 0.001697962754406035, 'z': -0.11294849216938019}, 'orientation': {'x': 0.006690743218567277, 'y': -0.0028896121354175025, 'z': 0.010418448070802, 'w': -0.999919229523982}}"
2022/10/11 14:15:51.26282567,"{'stamp': {'secs': 1665490551, 'nsecs': 24568144}, 'frame_id': 'map'}","{'position': {'x': -0.008738238364458084, 'y': 0.0019520993810147047, 'z': -0.11329225450754166}, 'orientation': {'x': 0.006734316968390843, 'y': -0.0029291763370042152, 'z': 0.010394087192362678, 'w': -0.999919060936588}}"
2022/10/11 14:15:51.57958061,"{'stamp': {'secs': 1665490551, 'nsecs': 54677143}, 'frame_id': 'map'}","{'position': {'x': -0.008805795572698116, 'y': 0.0021339054219424725, 'z': -0.11366499960422516}, 'orientation': {'x': 0.006722952136544331, 'y': -0.0029643034303322674, 'z': 0.010391684821997593, 'w': -0.9999190187897395}}"
2022/10/11 14:15:51.91799530,"{'stamp': {'secs': 1665490551, 'nsecs': 89369024}, 'frame_id': 'map'}","{'position': {'x': -0.009089300408959389, 'y': 0.0024764924310147762, 'z': -0.11451586335897446}, 'orientation': {'x': 0.0067111857571840764, 'y': -0.0029509338243673294, 'z': 0.010375711166412005, 'w': -0.9999193138176792}}"
2022/10/11 14:15:51.120951447,"{'stamp': {'secs': 1665490551, 'nsecs': 119943145}, 'frame_id': 'map'}","{'position': {'x': -0.009449711069464684, 'y': 0.0027758232317864895, 'z': -0.11533753573894501}, 'orientation': {'x': 0.006737018976507096, 'y': -0.0029488984279292824, 'z': 0.010366818181376192, 'w': -0.9999192716708305}}"
2022/10/11 14:15:51.208925956,"{'stamp': {'secs': 1665490551, 'nsecs': 150808655}, 'frame_id': 'map'}","{'position': {'x': -0.009913193061947823, 'y': 0.00310280779376626, 'z': -0.11636516451835632}, 'orientation': {'x': 0.006743416901038275, 'y': -0.0029403806486269068, 'z': 0.010341698659663667, 'w': -0.9999195245519217}}"
2022/10/11 14:15:51.210084502,"{'stamp': {'secs': 1665490551, 'nsecs': 185844106}, 'frame_id': 'map'}","{'position': {'x': -0.01046807412058115, 'y': 0.003468888346105814, 'z': -0.11740585416555405}, 'orientation': {'x': 0.006747148214220505, 'y': -0.0029231616853766817, 'z': 0.010387849458783127, 'w': -0.999919060936588}}"
2022/10/11 14:15:51.218487985,"{'stamp': {'secs': 1665490551, 'nsecs': 216792052}, 'frame_id': 'map'}","{'position': {'x': -0.011125138029456139, 'y': 0.0038571548648178577, 'z': -0.11873210221529007}, 'orientation': {'x': 0.006734019470909362, 'y': -0.002914042161030138, 'z': 0.010434590313781689, 'w': -0.9999186816149515}}"
2022/10/11 14:15:51.250677357,"{'stamp': {'secs': 1665490551, 'nsecs': 247716769}, 'frame_id': 'map'}","{'position': {'x': -0.011059642769396305, 'y': 0.0041078366339206696, 'z': -0.11845244467258453}, 'orientation': {'x': 0.006733288815777755, 'y': -0.0029068597453538246, 'z': 0.010453472101914552, 'w': -0.9999185130275574}}"
2022/10/11 14:15:51.287918972,"{'stamp': {'secs': 1665490551, 'nsecs': 285516967}, 'frame_id': 'map'}","{'position': {'x': -0.010218113660812378, 'y': 0.004259984474629164, 'z': -0.11702779680490494}, 'orientation': {'x': 0.006714504327595928, 'y': -0.0029491825898844766, 'z': 0.010522887961412042, 'w': -0.9999177122374356}}"
2022/10/11 14:15:51.323378185,"{'stamp': {'secs': 1665490551, 'nsecs': 319191818}, 'frame_id': 'map'}","{'position': {'x': -0.00976015254855156, 'y': 0.004426036961376667, 'z': -0.11614726483821869}, 'orientation': {'x': 0.006724714730919947, 'y': -0.003001422620796968, 'z': 0.01056903876053139, 'w': -0.9999170800347081}}"
2022/10/11 14:15:51.362456703,"{'stamp': {'secs': 1665490551, 'nsecs': 352792383}, 'frame_id': 'map'}","{'position': {'x': -0.009482578374445438, 'y': 0.004645772278308868, 'z': -0.11571366339921951}, 'orientation': {'x': 0.00672751041699246, 'y': -0.00301813697431795, 'z': 0.010573590620170659, 'w': -0.999916995741011}}"
2022/10/11 14:15:51.390302731,"{'stamp': {'secs': 1665490551, 'nsecs': 388710132}, 'frame_id': 'map'}","{'position': {'x': -0.009354758076369762, 'y': 0.004900135099887848, 'z': -0.11523666232824326}, 'orientation': {'x': 0.006722688718741138, 'y': -0.0030404970299058682, 'z': 0.010609246854010879, 'w': -0.9999164899788289}}"
2022/10/11 14:15:51.420661372,"{'stamp': {'secs': 1665490551, 'nsecs': 419084970}, 'frame_id': 'map'}","{'position': {'x': -0.009349239058792591, 'y': 0.005205994937568903, 'z': -0.1150694191455841}, 'orientation': {'x': 0.006745777783099393, 'y': -0.003052196896270817, 'z': 0.010626737796142871, 'w': -0.9999161106571923}}"
2022/10/11 14:15:51.537433387,"{'stamp': {'secs': 1665490551, 'nsecs': 451999523}, 'frame_id': 'map'}","{'position': {'x': -0.009475634433329105, 'y': 0.005554319359362125, 'z': -0.11500795185565948}, 'orientation': {'x': 0.006768263620688336, 'y': -0.0030561377912427124, 'z': 0.010634534963117337, 'w': -0.9999158999229498}}"
2022/10/11 14:15:51.540444015,"{'stamp': {'secs': 1665490551, 'nsecs': 486619014}, 'frame_id': 'map'}","{'position': {'x': -0.009794976562261581, 'y': 0.006048805080354214, 'z': -0.11535818129777908}, 'orientation': {'x': 0.006765033789148935, 'y': -0.003080988297523694, 'z': 0.010647642633004217, 'w': -0.9999156891887072}}"
2022/10/11 14:15:51.541959715,"{'stamp': {'secs': 1665490551, 'nsecs': 517957127}, 'frame_id': 'map'}","{'position': {'x': -0.01018499955534935, 'y': 0.006484893150627613, 'z': -0.1157156452536583}, 'orientation': {'x': 0.006745578573385727, 'y': -0.003103729650381734, 'z': 0.010637148067725088, 'w': -0.9999158999229497}}"
2022/10/11 14:15:51.555804633,"{'stamp': {'secs': 1665490551, 'nsecs': 548631671}, 'frame_id': 'map'}","{'position': {'x': -0.010679506696760654, 'y': 0.006962180603295565, 'z': -0.11641648411750793}, 'orientation': {'x': 0.006751266422301175, 'y': -0.003085779044183142, 'z': 0.010665175721984776, 'w': -0.9999156048950102}}"
2022/10/11 14:15:51.596104972,"{'stamp': {'secs': 1665490551, 'nsecs': 584684568}, 'frame_id': 'map'}","{'position': {'x': -0.011282621882855892, 'y': 0.0074845170602202415, 'z': -0.11695383489131927}, 'orientation': {'x': 0.00676233951893065, 'y': -0.003075597616817474, 'z': 0.010734085819300132, 'w': -0.9999148041048884}}"
2022/10/11 14:15:51.625205278,"{'stamp': {'secs': 1665490551, 'nsecs': 618299931}, 'frame_id': 'map'}","{'position': {'x': -0.012159984558820724, 'y': 0.008174018934369087, 'z': -0.11806275695562363}, 'orientation': {'x': 0.0067917906171444, 'y': -0.003073515628355487, 'z': 0.010793512875700406, 'w': -0.9999139611679182}}"
2022/10/11 14:15:51.652517176,"{'stamp': {'secs': 1665490551, 'nsecs': 649066692}, 'frame_id': 'map'}","{'position': {'x': -0.01190134696662426, 'y': 0.008015133440494537, 'z': -0.11664523184299469}, 'orientation': {'x': 0.006777898126840123, 'y': -0.0030697380524215712, 'z': 0.010811340992620544, 'w': -0.9999139190210697}}"
2022/10/11 14:15:51.688368641,"{'stamp': {'secs': 1665490551, 'nsecs': 686321275}, 'frame_id': 'map'}","{'position': {'x': -0.011014309711754322, 'y': 0.007391897961497307, 'z': -0.11347658187150955}, 'orientation': {'x': 0.006775950975366146, 'y': -0.003087254513153277, 'z': 0.010880082502541855, 'w': -0.999913118230948}}"
2022/10/11 14:15:51.723191016,"{'stamp': {'secs': 1665490551, 'nsecs': 719077578}, 'frame_id': 'map'}","{'position': {'x': -0.010534039698541164, 'y': 0.00701751047745347, 'z': -0.11125621199607849}, 'orientation': {'x': 0.006763016831957111, 'y': -0.003114049701366332, 'z': 0.010887163173091685, 'w': -0.999913033937251}}"
2022/10/11 14:15:51.758066415,"{'stamp': {'secs': 1665490551, 'nsecs': 750658727}, 'frame_id': 'map'}","{'position': {'x': -0.010237562470138073, 'y': 0.006737871095538139, 'z': -0.1094728633761406}, 'orientation': {'x': 0.0067609868685112534, 'y': -0.003117820197946787, 'z': 0.010908405184741121, 'w': -0.999912865349857}}"
2022/10/11 14:15:51.795248483,"{'stamp': {'secs': 1665490551, 'nsecs': 786757588}, 'frame_id': 'map'}","{'position': {'x': -0.010126153938472271, 'y': 0.006552489940077066, 'z': -0.107958123087883}, 'orientation': {'x': 0.006765364378491942, 'y': -0.0031318997148913306, 'z': 0.010942333397792492, 'w': -0.9999124017345233}}"
2022/10/11 14:15:51.820890742,"{'stamp': {'secs': 1665490551, 'nsecs': 817589644}, 'frame_id': 'map'}","{'position': {'x': -0.010173292830586433, 'y': 0.0064617120660841465, 'z': -0.10668139159679413}, 'orientation': {'x': 0.0067560617787721785, 'y': -0.0031320887171651214, 'z': 0.01096521913653381, 'w': -0.9999121910002808}}"
2022/10/11 14:15:51.853333286,"{'stamp': {'secs': 1665490551, 'nsecs': 851227661}, 'frame_id': 'map'}","{'position': {'x': -0.010423283092677593, 'y': 0.006439257878810167, 'z': -0.10543558746576309}, 'orientation': {'x': 0.006749575444640802, 'y': -0.0031244011978511857, 'z': 0.010953628753193334, 'w': -0.9999124017345233}}"
2022/10/11 14:15:51.888875001,"{'stamp': {'secs': 1665490551, 'nsecs': 886380519}, 'frame_id': 'map'}","{'position': {'x': -0.010755134746432304, 'y': 0.0065082041546702385, 'z': -0.10461781919002533}, 'orientation': {'x': 0.006746599975917609, 'y': -0.003135601887479082, 'z': 0.010944946502400132, 'w': -0.9999124860282204}}"
2022/10/11 14:15:51.919519881,"{'stamp': {'secs': 1665490551, 'nsecs': 917659457}, 'frame_id': 'map'}","{'position': {'x': -0.011209556832909584, 'y': 0.00665531400591135, 'z': -0.10416798293590546}, 'orientation': {'x': 0.0067481934889908005, 'y': -0.003163100895135043, 'z': 0.010938750915669038, 'w': -0.9999124438813718}}"
2022/10/11 14:15:51.958667925,"{'stamp': {'secs': 1665490551, 'nsecs': 948889523}, 'frame_id': 'map'}","{'position': {'x': -0.011767357587814331, 'y': 0.006879330612719059, 'z': -0.10394018888473511}, 'orientation': {'x': 0.006764776792154694, 'y': -0.003160144853474836, 'z': 0.010952659375677631, 'w': -0.9999121067065837}}"
2022/10/11 14:15:51.989756287,"{'stamp': {'secs': 1665490551, 'nsecs': 986911821}, 'frame_id': 'map'}","{'position': {'x': -0.012596538290381432, 'y': 0.007264480460435152, 'z': -0.1040879413485527}, 'orientation': {'x': 0.006782162531801565, 'y': -0.0031878470221115103, 'z': 0.010953713046890357, 'w': -0.9999119802660383}}"
2022/10/11 14:15:52.18625247,"{'stamp': {'secs': 1665490552, 'nsecs': 16892888}, 'frame_id': 'map'}","{'position': {'x': -0.013348582200706005, 'y': 0.007642128970474005, 'z': -0.1043144091963768}, 'orientation': {'x': 0.006760237609497296, 'y': -0.003215646819971493, 'z': 0.010979633358724539, 'w': -0.9999116852380987}}"
2022/10/11 14:15:52.50807005,"{'stamp': {'secs': 1665490552, 'nsecs': 48137319}, 'frame_id': 'map'}","{'position': {'x': -0.013600866310298443, 'y': 0.007638182491064072, 'z': -0.10407840460538864}, 'orientation': {'x': 0.006775295723580702, 'y': -0.003214956171418746, 'z': 0.010986503295031813, 'w': -0.9999115587975531}}"
2022/10/11 14:15:52.234347888,"{'stamp': {'secs': 1665490552, 'nsecs': 86317203}, 'frame_id': 'map'}","{'position': {'x': -0.013021772727370262, 'y': 0.006726282183080912, 'z': -0.10172953456640244}, 'orientation': {'x': 0.006726181638811478, 'y': -0.0031980551205297502, 'z': 0.011050145036283265, 'w': -0.999911221622765}}"
2022/10/11 14:15:52.236796782,"{'stamp': {'secs': 1665490552, 'nsecs': 117777127}, 'frame_id': 'map'}","{'position': {'x': -0.01275281235575676, 'y': 0.00615685386583209, 'z': -0.10032964497804642}, 'orientation': {'x': 0.006718127804114977, 'y': -0.0031787345771184267, 'z': 0.011097096625524439, 'w': -0.9999108844479769}}"
2022/10/11 14:15:52.238264357,"{'stamp': {'secs': 1665490552, 'nsecs': 152300946}, 'frame_id': 'map'}","{'position': {'x': -0.012635737657546997, 'y': 0.005695597734302282, 'z': -0.09924991428852081}, 'orientation': {'x': 0.006724542027622728, 'y': -0.003185998981585984, 'z': 0.01111762214074924, 'w': -0.9999105051263403}}"
2022/10/11 14:15:52.239453243,"{'stamp': {'secs': 1665490552, 'nsecs': 188897093}, 'frame_id': 'map'}","{'position': {'x': -0.0126686105504632, 'y': 0.005342972930520773, 'z': -0.09855712205171585}, 'orientation': {'x': 0.0066979470369400995, 'y': -0.003211025319250597, 'z': 0.011126177950996963, 'w': -0.9999105472731888}}"
2022/10/11 14:15:52.240596354,"{'stamp': {'secs': 1665490552, 'nsecs': 223370696}, 'frame_id': 'map'}","{'position': {'x': -0.012842263095080853, 'y': 0.005092077422887087, 'z': -0.09808909147977829}, 'orientation': {'x': 0.006692066563756068, 'y': -0.0032072561397591577, 'z': 0.011140002117308534, 'w': -0.9999104629794918}}"
2022/10/11 14:15:52.262652723,"{'stamp': {'secs': 1665490552, 'nsecs': 254345746}, 'frame_id': 'map'}","{'position': {'x': -0.0131384851410985, 'y': 0.00494746770709753, 'z': -0.09783277660608292}, 'orientation': {'x': 0.006700550263380156, 'y': -0.0032057306214064163, 'z': 0.011160569779381846, 'w': -0.9999101258047036}}"
2022/10/11 14:15:52.283839566,"{'stamp': {'secs': 1665490552, 'nsecs': 281822252}, 'frame_id': 'map'}","{'position': {'x': -0.01367086824029684, 'y': 0.004906793124973774, 'z': -0.09789678454399109}, 'orientation': {'x': 0.006709964157121768, 'y': -0.003236821824717296, 'z': 0.011174773267330018, 'w': -0.9999098307767641}}"
2022/10/11 14:15:52.391299787,"{'stamp': {'secs': 1665490552, 'nsecs': 320731011}, 'frame_id': 'map'}","{'position': {'x': -0.014209704473614693, 'y': 0.004972152411937714, 'z': -0.09818976372480392}, 'orientation': {'x': 0.006734628624579245, 'y': -0.003236661139857348, 'z': 0.011169125589629514, 'w': -0.9999097464830671}}"
2022/10/11 14:15:52.392874262,"{'stamp': {'secs': 1665490552, 'nsecs': 369344321}, 'frame_id': 'map'}","{'position': {'x': -0.014856036752462387, 'y': 0.005121917463839054, 'z': -0.0986974686384201}, 'orientation': {'x': 0.006727935507472363, 'y': -0.003236110925920929, 'z': 0.01117363530242027, 'w': -0.9999097043362186}}"
2022/10/11 14:15:52.424701910,"{'stamp': {'secs': 1665490552, 'nsecs': 418971901}, 'frame_id': 'map'}","{'position': {'x': -0.015589052811264992, 'y': 0.0053472393192350864, 'z': -0.09924927353858948}, 'orientation': {'x': 0.006737043342653891, 'y': -0.0032290129685777647, 'z': 0.011159516108169065, 'w': -0.9999098307767641}}"
2022/10/11 14:15:52.446764723,"{'stamp': {'secs': 1665490552, 'nsecs': 427631183}, 'frame_id': 'map'}","{'position': {'x': -0.016625555232167244, 'y': 0.0057332818396389484, 'z': -0.10023993253707886}, 'orientation': {'x': 0.006770321572275782, 'y': -0.0032225131342839743, 'z': 0.011147588550040444, 'w': -0.9999097886299158}}"
2022/10/11 14:15:52.460409804,"{'stamp': {'secs': 1665490552, 'nsecs': 453191681}, 'frame_id': 'map'}","{'position': {'x': -0.01675984635949135, 'y': 0.005558365024626255, 'z': -0.09828058630228043}, 'orientation': {'x': 0.006787254727209541, 'y': -0.0032277077333629422, 'z': 0.011170558582478951, 'w': -0.999909409308279}}"
2022/10/11 14:15:52.483130145,"{'stamp': {'secs': 1665490552, 'nsecs': 480862199}, 'frame_id': 'map'}","{'position': {'x': -0.01671282947063446, 'y': 0.005014742724597454, 'z': -0.09360729902982712}, 'orientation': {'x': 0.006774488677286169, 'y': -0.0032065659851147925, 'z': 0.011189061048975157, 'w': -0.9999093671614305}}"
2022/10/11 14:15:52.513335131,"{'stamp': {'secs': 1665490552, 'nsecs': 512161800}, 'frame_id': 'map'}","{'position': {'x': -0.016849473118782043, 'y': 0.004714499227702618, 'z': -0.09018868952989578}, 'orientation': {'x': 0.00678264228147563, 'y': -0.003203861836728888, 'z': 0.011197448271828891, 'w': -0.999909156427188}}"
2022/10/11 14:15:52.545615842,"{'stamp': {'secs': 1665490552, 'nsecs': 543615414}, 'frame_id': 'map'}","{'position': {'x': -0.017119409516453743, 'y': 0.004535850137472153, 'z': -0.08724147826433182}, 'orientation': {'x': 0.006749044328495114, 'y': -0.0032119102384331986, 'z': 0.01123082857584956, 'w': -0.999908987839794}}"
2022/10/11 14:15:52.580763064,"{'stamp': {'secs': 1665490552, 'nsecs': 579125527}, 'frame_id': 'map'}","{'position': {'x': -0.017516829073429108, 'y': 0.004459555726498365, 'z': -0.08472686260938644}, 'orientation': {'x': 0.006731896158779498, 'y': -0.0032247640394122592, 'z': 0.011254009342530458, 'w': -0.9999088192523998}}"
2022/10/11 14:15:52.614387450,"{'stamp': {'secs': 1665490552, 'nsecs': 611166565}, 'frame_id': 'map'}","{'position': {'x': -0.018023570999503136, 'y': 0.004482007119804621, 'z': -0.08263812959194183}, 'orientation': {'x': 0.006757049430898026, 'y': -0.003217585081094613, 'z': 0.011269519382782534, 'w': -0.9999084820776118}}"
2022/10/11 14:15:52.649946497,"{'stamp': {'secs': 1665490552, 'nsecs': 646320951}, 'frame_id': 'map'}","{'position': {'x': -0.018632948398590088, 'y': 0.00460047135129571, 'z': -0.08074668049812317}, 'orientation': {'x': 0.006746728227460539, 'y': -0.0032103573904833753, 'z': 0.011275124913634471, 'w': -0.9999085242244603}}"
2022/10/11 14:15:52.679976872,"{'stamp': {'secs': 1665490552, 'nsecs': 679024373}, 'frame_id': 'map'}","{'position': {'x': -0.01952970214188099, 'y': 0.004862014204263687, 'z': -0.0790146216750145}, 'orientation': {'x': 0.00673086800616641, 'y': -0.003208340762563806, 'z': 0.011290129191704301, 'w': -0.9999085242244603}}"
2022/10/11 14:15:52.712092802,"{'stamp': {'secs': 1665490552, 'nsecs': 711186272}, 'frame_id': 'map'}","{'position': {'x': -0.020356496796011925, 'y': 0.005158959422260523, 'z': -0.0779966413974762}, 'orientation': {'x': 0.006756719006191145, 'y': -0.003167869415917347, 'z': 0.011324605313786207, 'w': -0.9999081027559751}}"
2022/10/11 14:15:52.744416747,"{'stamp': {'secs': 1665490552, 'nsecs': 743668954}, 'frame_id': 'map'}","{'position': {'x': -0.021261027082800865, 'y': 0.005535118747502565, 'z': -0.0773521289229393}, 'orientation': {'x': 0.006765176693307167, 'y': -0.0031733168960873795, 'z': 0.011344414332586372, 'w': -0.9999077655811871}}"
2022/10/11 14:15:52.780854050,"{'stamp': {'secs': 1665490552, 'nsecs': 779322737}, 'frame_id': 'map'}","{'position': {'x': -0.02224486693739891, 'y': 0.005978753324598074, 'z': -0.07691186666488647}, 'orientation': {'x': 0.006773286833559101, 'y': -0.0031449683660161208, 'z': 0.011354529576228956, 'w': -0.9999076812874901}}"
2022/10/11 14:15:52.812304530,"{'stamp': {'secs': 1665490552, 'nsecs': 811083657}, 'frame_id': 'map'}","{'position': {'x': -0.023315751925110817, 'y': 0.006490657106041908, 'z': -0.07680384814739227}, 'orientation': {'x': 0.006751866356347947, 'y': -0.0031134056448375246, 'z': 0.011348249695800838, 'w': -0.9999079763154297}}"
2022/10/11 14:15:52.843868305,"{'stamp': {'secs': 1665490552, 'nsecs': 842640818}, 'frame_id': 'map'}","{'position': {'x': -0.023273661732673645, 'y': 0.006528581492602825, 'z': -0.0757855549454689}, 'orientation': {'x': 0.006750566883397571, 'y': -0.0030923192143280445, 'z': 0.011339736032401682, 'w': -0.9999081449028238}}"
2022/10/11 14:15:52.883335543,"{'stamp': {'secs': 1665490552, 'nsecs': 879715541}, 'frame_id': 'map'}","{'position': {'x': -0.02203509956598282, 'y': 0.006078429985791445, 'z': -0.073781318962574}, 'orientation': {'x': 0.006753595364953656, 'y': -0.0031107283321403206, 'z': 0.011335689934944604, 'w': -0.9999081449028238}}"
2022/10/11 14:15:52.940537878,"{'stamp': {'secs': 1665490552, 'nsecs': 912549314}, 'frame_id': 'map'}","{'position': {'x': -0.021307166665792465, 'y': 0.005852815695106983, 'z': -0.07244043052196503}, 'orientation': {'x': 0.006744520456997527, 'y': -0.0031396135759855855, 'z': 0.0113505677724689, 'w': -0.9999079341685813}}"
2022/10/11 14:15:52.952214007,"{'stamp': {'secs': 1665490552, 'nsecs': 947677079}, 'frame_id': 'map'}","{'position': {'x': -0.020783912390470505, 'y': 0.005745075177401304, 'z': -0.07142233103513718}, 'orientation': {'x': 0.006718459710547, 'y': -0.003163495198659198, 'z': 0.011338935242279913, 'w': -0.9999081870496722}}"
2022/10/11 14:15:52.989065679,"{'stamp': {'secs': 1665490552, 'nsecs': 983121599}, 'frame_id': 'map'}","{'position': {'x': -0.02044537477195263, 'y': 0.005743698682636023, 'z': -0.0704139694571495}, 'orientation': {'x': 0.006699672917459396, 'y': -0.0031975437607193015, 'z': 0.0113181568459641, 'w': -0.9999083977839147}}"
2022/10/11 14:15:53.18093505,"{'stamp': {'secs': 1665490553, 'nsecs': 16580382}, 'frame_id': 'map'}","{'position': {'x': -0.020273957401514053, 'y': 0.005854924209415913, 'z': -0.06965331733226776}, 'orientation': {'x': 0.006686071174555394, 'y': -0.0032168814262878336, 'z': 0.011288864786248964, 'w': -0.9999087771055515}}"
2022/10/11 14:15:53.50434348,"{'stamp': {'secs': 1665490553, 'nsecs': 47907845}, 'frame_id': 'map'}","{'position': {'x': -0.02026994712650776, 'y': 0.006060593295842409, 'z': -0.06905584782361984}, 'orientation': {'x': 0.0066920361060725745, 'y': -0.0032441077965174904, 'z': 0.011273144011754443, 'w': -0.9999088192523999}}"
2022/10/11 14:15:53.85095792,"{'stamp': {'secs': 1665490553, 'nsecs': 83181499}, 'frame_id': 'map'}","{'position': {'x': -0.02049354277551174, 'y': 0.006431494373828173, 'z': -0.06874940544366837}, 'orientation': {'x': 0.006682066565402351, 'y': -0.003245479380091491, 'z': 0.011280351122849752, 'w': -0.9999087771055515}}"
2022/10/11 14:15:53.116491843,"{'stamp': {'secs': 1665490553, 'nsecs': 114763345}, 'frame_id': 'map'}","{'position': {'x': -0.020814545452594757, 'y': 0.006803660653531551, 'z': -0.06856399774551392}, 'orientation': {'x': 0.006694938640991508, 'y': -0.003211910567705453, 'z': 0.011321950062330055, 'w': -0.9999083134902178}}"
2022/10/11 14:15:53.150188877,"{'stamp': {'secs': 1665490553, 'nsecs': 146128358}, 'frame_id': 'map'}","{'position': {'x': -0.02127024345099926, 'y': 0.007232136093080044, 'z': -0.0686693787574768}, 'orientation': {'x': 0.006699951481786272, 'y': -0.0032110109959075485, 'z': 0.011315838769296038, 'w': -0.9999084399307634}}"
2022/10/11 14:15:53.188787861,"{'stamp': {'secs': 1665490553, 'nsecs': 185224504}, 'frame_id': 'map'}","{'position': {'x': -0.021842991933226585, 'y': 0.007727110758423805, 'z': -0.06878606230020523}, 'orientation': {'x': 0.006675853691877914, 'y': -0.003244365287420111, 'z': 0.011305807819350422, 'w': -0.9999085242244603}}"
2022/10/11 14:15:53.221716578,"{'stamp': {'secs': 1665490553, 'nsecs': 217233392}, 'frame_id': 'map'}","{'position': {'x': -0.022529257461428642, 'y': 0.008274614810943604, 'z': -0.06908348947763443}, 'orientation': {'x': 0.006679375752542733, 'y': -0.0032413285740576754, 'z': 0.011301003078620142, 'w': -0.9999086085181573}}"
2022/10/11 14:15:53.254863676,"{'stamp': {'secs': 1665490553, 'nsecs': 248927095}, 'frame_id': 'map'}","{'position': {'x': -0.02253282256424427, 'y': 0.008664256893098354, 'z': -0.06853680312633514}, 'orientation': {'x': 0.006670779606443908, 'y': -0.0032061999990044806, 'z': 0.011320559216329129, 'w': -0.9999086085181574}}"
2022/10/11 14:15:53.292924856,"{'stamp': {'secs': 1665490553, 'nsecs': 283979438}, 'frame_id': 'map'}","{'position': {'x': -0.021828409284353256, 'y': 0.009000777266919613, 'z': -0.06700435280799866}, 'orientation': {'x': 0.006682358959163894, 'y': -0.003177207412404414, 'z': 0.011310865441171714, 'w': -0.9999086928118543}}"
2022/10/11 14:15:53.323286844,"{'stamp': {'secs': 1665490553, 'nsecs': 316740111}, 'frame_id': 'map'}","{'position': {'x': -0.021500239148736, 'y': 0.00935125071555376, 'z': -0.06611917912960052}, 'orientation': {'x': 0.006674080725426298, 'y': -0.003198525485944577, 'z': 0.011314490070143679, 'w': -0.9999086085181573}}"
2022/10/11 14:15:53.354126899,"{'stamp': {'secs': 1665490553, 'nsecs': 347715114}, 'frame_id': 'map'}","{'position': {'x': -0.02136075496673584, 'y': 0.009775548242032528, 'z': -0.0654783621430397}, 'orientation': {'x': 0.006664894358812194, 'y': -0.003192012151488374, 'z': 0.011319969160450083, 'w': -0.9999086085181573}}"
2022/10/11 14:15:53.385566097,"{'stamp': {'secs': 1665490553, 'nsecs': 383360176}, 'frame_id': 'map'}","{'position': {'x': -0.02139969728887081, 'y': 0.010259406641125679, 'z': -0.06507285684347153}, 'orientation': {'x': 0.006698074629938522, 'y': -0.003197051827971838, 'z': 0.011323256614633903, 'w': -0.9999083556370663}}"
2022/10/11 14:15:53.418602910,"{'stamp': {'secs': 1665490553, 'nsecs': 415595948}, 'frame_id': 'map'}","{'position': {'x': -0.021600991487503052, 'y': 0.010796685703098774, 'z': -0.06475693732500076}, 'orientation': {'x': 0.006714146902564221, 'y': -0.003208456666397211, 'z': 0.01134036823512935, 'w': -0.9999080184622782}}"
2022/10/11 14:15:53.454560671,"{'stamp': {'secs': 1665490553, 'nsecs': 449039434}, 'frame_id': 'map'}","{'position': {'x': -0.021936563774943352, 'y': 0.01138339377939701, 'z': -0.06471002846956253}, 'orientation': {'x': 0.006711690531549445, 'y': -0.003203755317154722, 'z': 0.011337965864764155, 'w': -0.9999081449028238}}"
2022/10/11 14:15:53.495251366,"{'stamp': {'secs': 1665490553, 'nsecs': 486689585}, 'frame_id': 'map'}","{'position': {'x': -0.02256033755838871, 'y': 0.012179281562566757, 'z': -0.06475861370563507}, 'orientation': {'x': 0.006718256714202414, 'y': -0.003203826604597711, 'z': 0.01136228459635491, 'w': -0.9999077655811872}}"
2022/10/11 14:15:53.521356691,"{'stamp': {'secs': 1665490553, 'nsecs': 518957277}, 'frame_id': 'map'}","{'position': {'x': -0.023203976452350616, 'y': 0.012859802693128586, 'z': -0.06508172303438187}, 'orientation': {'x': 0.0067358872677701275, 'y': -0.0032181268985885555, 'z': 0.011401059696985072, 'w': -0.999907175525308}}"
2022/10/11 14:15:53.558554575,"{'stamp': {'secs': 1665490553, 'nsecs': 549971479}, 'frame_id': 'map'}","{'position': {'x': -0.023961082100868225, 'y': 0.01357181929051876, 'z': -0.06527982652187347}, 'orientation': {'x': 0.006744383644375994, 'y': -0.0032129555132034944, 'z': 0.011427401477304366, 'w': -0.9999067962036714}}"
2022/10/11 14:15:53.589098558,"{'stamp': {'secs': 1665490553, 'nsecs': 587812693}, 'frame_id': 'map'}","{'position': {'x': -0.02482711151242256, 'y': 0.014308864250779152, 'z': -0.0657012015581131}, 'orientation': {'x': 0.006765425458495057, 'y': -0.0031902034589971996, 'z': 0.011470306969088462, 'w': -0.9999062904414893}}"
2022/10/11 14:15:53.621729164,"{'stamp': {'secs': 1665490553, 'nsecs': 619260368}, 'frame_id': 'map'}","{'position': {'x': -0.026048848405480385, 'y': 0.015276110731065273, 'z': -0.0661144033074379}, 'orientation': {'x': 0.006751496748242842, 'y': -0.003188612250829786, 'z': 0.011508028398505676, 'w': -0.9999059111198526}}"
2022/10/11 14:15:53.651303720,"{'stamp': {'secs': 1665490553, 'nsecs': 650273183}, 'frame_id': 'map'}","{'position': {'x': -0.026296008378267288, 'y': 0.015642164275050163, 'z': -0.06610995531082153}, 'orientation': {'x': 0.006741115287982875, 'y': -0.0031935528163648, 'z': 0.01155346270120039, 'w': -0.9999054896513675}}"
2022/10/11 14:15:53.687134419,"{'stamp': {'secs': 1665490553, 'nsecs': 685966286}, 'frame_id': 'map'}","{'position': {'x': -0.02514055371284485, 'y': 0.015567158348858356, 'z': -0.06518828123807907}, 'orientation': {'x': 0.0067385545376635846, 'y': -0.003201351629700585, 'z': 0.01158258617352148, 'w': -0.999905110329731}}"
2022/10/11 14:15:53.722834475,"{'stamp': {'secs': 1665490553, 'nsecs': 717789384}, 'frame_id': 'map'}","{'position': {'x': -0.024500541388988495, 'y': 0.015626754611730576, 'z': -0.06474696844816208}, 'orientation': {'x': 0.006726373110627174, 'y': -0.0031983667767181536, 'z': 0.01162047619033274, 'w': -0.9999047310080943}}"
2022/10/11 14:15:53.752191891,"{'stamp': {'secs': 1665490553, 'nsecs': 749368548}, 'frame_id': 'map'}","{'position': {'x': -0.02408718690276146, 'y': 0.015790613368153572, 'z': -0.06439781188964844}, 'orientation': {'x': 0.0067106510190435955, 'y': -0.0031998761607304493, 'z': 0.011613732694570944, 'w': -0.9999048995954883}}"
2022/10/11 14:15:53.796211023,"{'stamp': {'secs': 1665490553, 'nsecs': 784489831}, 'frame_id': 'map'}","{'position': {'x': -0.023858988657593727, 'y': 0.016127079725265503, 'z': -0.06410307437181473}, 'orientation': {'x': 0.006696089612155335, 'y': -0.003233363478233625, 'z': 0.011613648400873977, 'w': -0.9999048995954885}}"
2022/10/11 14:15:53.817808913,"{'stamp': {'secs': 1665490553, 'nsecs': 815258996}, 'frame_id': 'map'}","{'position': {'x': -0.02386580966413021, 'y': 0.016386520117521286, 'z': -0.06404421478509903}, 'orientation': {'x': 0.006675619908577581, 'y': -0.0032151858388159054, 'z': 0.011635691202645126, 'w': -0.99990485744864}}"
2022/10/11 14:15:53.851073441,"{'stamp': {'secs': 1665490553, 'nsecs': 846940875}, 'frame_id': 'map'}","{'position': {'x': -0.024036535993218422, 'y': 0.016785060986876488, 'z': -0.06402610242366791}, 'orientation': {'x': 0.006677869661252977, 'y': -0.003226710861613983, 'z': 0.011606146261839034, 'w': -0.9999051524765794}}"
2022/10/11 14:15:53.884021678,"{'stamp': {'secs': 1665490553, 'nsecs': 882359172}, 'frame_id': 'map'}","{'position': {'x': -0.024486754089593887, 'y': 0.01736413687467575, 'z': -0.06424302607774734}, 'orientation': {'x': 0.0066567527730600025, 'y': -0.0032269637427050487, 'z': 0.011613774841419455, 'w': -0.9999051946234279}}"
2022/10/11 14:15:53.916845990,"{'stamp': {'secs': 1665490553, 'nsecs': 914902690}, 'frame_id': 'map'}","{'position': {'x': -0.0250275656580925, 'y': 0.017888113856315613, 'z': -0.06435845047235489}, 'orientation': {'x': 0.006672326692129286, 'y': -0.0032107016446249236, 'z': 0.011604081066261929, 'w': -0.999905278917125}}"
2022/10/11 14:15:53.949029695,"{'stamp': {'secs': 1665490553, 'nsecs': 946698874}, 'frame_id': 'map'}","{'position': {'x': -0.025711650028824806, 'y': 0.018472513183951378, 'z': -0.06470942497253418}, 'orientation': {'x': 0.006670894851732805, 'y': -0.0031961282192993932, 'z': 0.011605092590626254, 'w': -0.9999053632108219}}"
2022/10/11 14:15:53.984369222,"{'stamp': {'secs': 1665490553, 'nsecs': 983386349}, 'frame_id': 'map'}","{'position': {'x': -0.02652319334447384, 'y': 0.019099943339824677, 'z': -0.06500235944986343}, 'orientation': {'x': 0.006681211939267116, 'y': -0.00322635047313199, 'z': 0.011627767595125127, 'w': -0.9999048574486399}}"
2022/10/11 14:15:54.16775880,"{'stamp': {'secs': 1665490554, 'nsecs': 15522466}, 'frame_id': 'map'}","{'position': {'x': -0.02745615318417549, 'y': 0.019761526957154274, 'z': -0.06550312042236328}, 'orientation': {'x': 0.006688879537609686, 'y': -0.003193340765033229, 'z': 0.011620602630878218, 'w': -0.9999050260360339}}"
2022/10/11 14:15:54.50485471,"{'stamp': {'secs': 1665490554, 'nsecs': 47444761}, 'frame_id': 'map'}","{'position': {'x': -0.027583729475736618, 'y': 0.019944364205002785, 'z': -0.06555559486150742}, 'orientation': {'x': 0.006681598010984921, 'y': -0.0031694784047864755, 'z': 0.011618073819967545, 'w': -0.999905194623428}}"
2022/10/11 14:15:54.129038114,"{'stamp': {'secs': 1665490554, 'nsecs': 83509516}, 'frame_id': 'map'}","{'position': {'x': -0.026538090780377388, 'y': 0.01939266175031662, 'z': -0.06530948728322983}, 'orientation': {'x': 0.00668275869568024, 'y': -0.0032040016128007066, 'z': 0.011608632925901197, 'w': -0.999905194623428}}"
2022/10/11 14:15:54.136300733,"{'stamp': {'secs': 1665490554, 'nsecs': 115126919}, 'frame_id': 'map'}","{'position': {'x': -0.02576270140707493, 'y': 0.01897333189845085, 'z': -0.06496832519769669}, 'orientation': {'x': 0.0066674295905317996, 'y': -0.0032344574852975114, 'z': 0.011660220668478438, 'w': -0.9999046045675488}}"
2022/10/11 14:15:54.167894188,"{'stamp': {'secs': 1665490554, 'nsecs': 161057533}, 'frame_id': 'map'}","{'position': {'x': -0.0252233874052763, 'y': 0.0186786949634552, 'z': -0.06479228287935257}, 'orientation': {'x': 0.006651645431128343, 'y': -0.003242307500468792, 'z': 0.011670925968000234, 'w': -0.9999045202738517}}"
2022/10/11 14:15:54.198765051,"{'stamp': {'secs': 1665490554, 'nsecs': 196934624}, 'frame_id': 'map'}","{'position': {'x': -0.024898629635572433, 'y': 0.018510255962610245, 'z': -0.06472668051719666}, 'orientation': {'x': 0.00662508254449048, 'y': -0.003263785764960521, 'z': 0.011695413286985146, 'w': -0.9999043938333063}}"
2022/10/11 14:15:54.229766453,"{'stamp': {'secs': 1665490554, 'nsecs': 227512853}, 'frame_id': 'map'}","{'position': {'x': -0.024782629683613777, 'y': 0.018466239795088768, 'z': -0.06481568515300751}, 'orientation': {'x': 0.006606872636391868, 'y': -0.003285842890074768, 'z': 0.011700892377291439, 'w': -0.9999043095396092}}"
2022/10/11 14:15:54.263331092,"{'stamp': {'secs': 1665490554, 'nsecs': 258572911}, 'frame_id': 'map'}","{'position': {'x': -0.024893075227737427, 'y': 0.018532557412981987, 'z': -0.06502720713615417}, 'orientation': {'x': 0.006602014553556479, 'y': -0.0032880779901348607, 'z': 0.011714379368815031, 'w': -0.9999042252459123}}"
2022/10/11 14:15:54.295184904,"{'stamp': {'secs': 1665490554, 'nsecs': 293263723}, 'frame_id': 'map'}","{'position': {'x': -0.025182126089930534, 'y': 0.018679041415452957, 'z': -0.0653352290391922}, 'orientation': {'x': 0.006612125187387538, 'y': -0.0032748959047185708, 'z': 0.011731533136158878, 'w': -0.9999040145116697}}"
2022/10/11 14:15:54.325447873,"{'stamp': {'secs': 1665490554, 'nsecs': 324143923}, 'frame_id': 'map'}","{'position': {'x': -0.025639941915869713, 'y': 0.018901780247688293, 'z': -0.06575962901115417}, 'orientation': {'x': 0.006601971418891207, 'y': -0.003286227809339683, 'z': 0.01177823184430904, 'w': -0.9999035087494875}}"
2022/10/11 14:15:54.360550982,"{'stamp': {'secs': 1665490554, 'nsecs': 355195353}, 'frame_id': 'map'}","{'position': {'x': -0.026244543492794037, 'y': 0.019193504005670547, 'z': -0.06617475301027298}, 'orientation': {'x': 0.006599840862771755, 'y': -0.0032796504314300794, 'z': 0.011789232171770359, 'w': -0.999903382308942}}"
2022/10/11 14:15:54.393566116,"{'stamp': {'secs': 1665490554, 'nsecs': 392071030}, 'frame_id': 'map'}","{'position': {'x': -0.026976628229022026, 'y': 0.019559696316719055, 'z': -0.06677095592021942}, 'orientation': {'x': 0.006588654496486907, 'y': -0.0033116810484815967, 'z': 0.011818987846819062, 'w': -0.9999029608404568}}"
2022/10/11 14:15:54.425463730,"{'stamp': {'secs': 1665490554, 'nsecs': 424208898}, 'frame_id': 'map'}","{'position': {'x': -0.028048347681760788, 'y': 0.020106816664338112, 'z': -0.0674961507320404}, 'orientation': {'x': 0.006565360295514415, 'y': -0.003296240978583561, 'z': 0.01182130592348718, 'w': -0.9999031715746994}}"
