time,header,pose
2022/11/02 12:04:00.657396526,"{'stamp': {'secs': 1667387040, 'nsecs': 654725648}, 'frame_id': 'map'}","{'position': {'x': -0.005000149365514517, 'y': -0.0023499708622694016, 'z': -0.022099103778600693}, 'orientation': {'x': 0.006977589977402801, 'y': -0.009122334932186645, 'z': 0.0284112327280423, 'w': -0.999530340552772}}"
2022/11/02 12:04:00.693202805,"{'stamp': {'secs': 1667387040, 'nsecs': 691249378}, 'frame_id': 'map'}","{'position': {'x': -0.004887429066002369, 'y': -0.002376734046265483, 'z': -0.022281618788838387}, 'orientation': {'x': 0.007003318323512924, 'y': -0.009161628636616704, 'z': 0.028382657164751912, 'w': -0.9995305934338632}}"
2022/11/02 12:04:00.726942990,"{'stamp': {'secs': 1667387040, 'nsecs': 723574374}, 'frame_id': 'map'}","{'position': {'x': -0.004893389996141195, 'y': -0.002390907844528556, 'z': -0.022473875433206558}, 'orientation': {'x': 0.00696769369980909, 'y': -0.009182599327928904, 'z': 0.028392561674151884, 'w': -0.9995304669933176}}"
2022/11/02 12:04:00.762147288,"{'stamp': {'secs': 1667387040, 'nsecs': 755947570}, 'frame_id': 'map'}","{'position': {'x': -0.004983271472156048, 'y': -0.0024110989179462194, 'z': -0.02270384505391121}, 'orientation': {'x': 0.006958766717413068, 'y': -0.009210379122499456, 'z': 0.028403646295310336, 'w': -0.999529919084287}}"
2022/11/02 12:04:00.796077741,"{'stamp': {'secs': 1667387040, 'nsecs': 793176857}, 'frame_id': 'map'}","{'position': {'x': -0.005196108482778072, 'y': -0.0024317335337400436, 'z': -0.023071181029081345}, 'orientation': {'x': 0.006956619615362853, 'y': -0.009156825212975476, 'z': 0.028428217907992104, 'w': -0.9995297083500443}}"
2022/11/02 12:04:00.828165844,"{'stamp': {'secs': 1667387040, 'nsecs': 824551916}, 'frame_id': 'map'}","{'position': {'x': -0.005004108417779207, 'y': -0.002459051553159952, 'z': -0.023101206868886948}, 'orientation': {'x': 0.0069410646294481735, 'y': -0.009189299524389249, 'z': 0.02842408751683806, 'w': -0.9995296240563474}}"
2022/11/02 12:04:00.861929268,"{'stamp': {'secs': 1667387040, 'nsecs': 856870446}, 'frame_id': 'map'}","{'position': {'x': -0.004835248459130526, 'y': -0.002484669676050544, 'z': -0.023193225264549255}, 'orientation': {'x': 0.0069269077335239425, 'y': -0.00918302705258684, 'z': 0.028426995649385278, 'w': -0.999529750496893}}"
2022/11/02 12:04:00.895907575,"{'stamp': {'secs': 1667387040, 'nsecs': 893015032}, 'frame_id': 'map'}","{'position': {'x': -0.004565713461488485, 'y': -0.002704682992771268, 'z': -0.023174652829766273}, 'orientation': {'x': 0.006954093273994104, 'y': -0.009152910989056155, 'z': 0.028381898521478655, 'w': -0.9995310991960453}}"
2022/11/02 12:04:00.926907998,"{'stamp': {'secs': 1667387040, 'nsecs': 924871632}, 'frame_id': 'map'}","{'position': {'x': -0.004337644204497337, 'y': -0.002984060673043132, 'z': -0.023106608539819717}, 'orientation': {'x': 0.006984260292406095, 'y': -0.009156061054392026, 'z': 0.02839348890481913, 'w': -0.9995305512870146}}"
2022/11/02 12:04:00.959477020,"{'stamp': {'secs': 1667387040, 'nsecs': 957612117}, 'frame_id': 'map'}","{'position': {'x': -0.004195830784738064, 'y': -0.0032603880390524864, 'z': -0.023130543529987335}, 'orientation': {'x': 0.006947183907334413, 'y': -0.009165257299173751, 'z': 0.028430999599993845, 'w': -0.9995296240563474}}"
2022/11/02 12:04:00.995500569,"{'stamp': {'secs': 1667387040, 'nsecs': 993882199}, 'frame_id': 'map'}","{'position': {'x': -0.004121906124055386, 'y': -0.0035189741756767035, 'z': -0.02322857268154621}, 'orientation': {'x': 0.006884986930415414, 'y': -0.0091795280409798, 'z': 0.028445034500547972, 'w': -0.9995294976158018}}"
2022/11/02 12:04:01.27664805,"{'stamp': {'secs': 1667387041, 'nsecs': 25809607}, 'frame_id': 'map'}","{'position': {'x': -0.003915548324584961, 'y': -0.0037037504371255636, 'z': -0.02318815514445305}, 'orientation': {'x': 0.00686999639946214, 'y': -0.00918234340106949, 'z': 0.028455318331584656, 'w': -0.9995293290284077}}"
2022/11/02 12:04:01.60484178,"{'stamp': {'secs': 1667387041, 'nsecs': 57542785}, 'frame_id': 'map'}","{'position': {'x': -0.0036367822904139757, 'y': -0.0038243106100708246, 'z': -0.023059863597154617}, 'orientation': {'x': 0.006855308963618665, 'y': -0.009179421356769506, 'z': 0.02848220802093454, 'w': -0.9995286546788317}}"
2022/11/02 12:04:01.155417125,"{'stamp': {'secs': 1667387041, 'nsecs': 93291885}, 'frame_id': 'map'}","{'position': {'x': -0.003444329835474491, 'y': -0.003977398853749037, 'z': -0.022986585274338722}, 'orientation': {'x': 0.006855303283672284, 'y': -0.00922586100997375, 'z': 0.028481238643418783, 'w': -0.999528275357195}}"
2022/11/02 12:04:01.156195142,"{'stamp': {'secs': 1667387041, 'nsecs': 125045947}, 'frame_id': 'map'}","{'position': {'x': -0.0033930432982742786, 'y': -0.004083053208887577, 'z': -0.023004766553640366}, 'orientation': {'x': 0.006848715451368614, 'y': -0.00919599050122648, 'z': 0.028475675259415467, 'w': -0.9995287811193772}}"
2022/11/02 12:04:01.164810215,"{'stamp': {'secs': 1667387041, 'nsecs': 157222803}, 'frame_id': 'map'}","{'position': {'x': -0.0034048643428832293, 'y': -0.004166878759860992, 'z': -0.023090267553925514}, 'orientation': {'x': 0.006869887328028005, 'y': -0.009211794581601302, 'z': 0.028509013416587514, 'w': -0.9995275588607704}}"
2022/11/02 12:04:01.195726673,"{'stamp': {'secs': 1667387041, 'nsecs': 193613914}, 'frame_id': 'map'}","{'position': {'x': -0.00347731146030128, 'y': -0.004247821867465973, 'z': -0.023255450651049614}, 'orientation': {'x': 0.00685883942072596, 'y': -0.009221227737769774, 'z': 0.028472556392625636, 'w': -0.9995285282382861}}"
2022/11/02 12:04:01.230344664,"{'stamp': {'secs': 1667387041, 'nsecs': 226579414}, 'frame_id': 'map'}","{'position': {'x': -0.0035494978073984385, 'y': -0.004278848879039288, 'z': -0.02341146394610405}, 'orientation': {'x': 0.006837114366679863, 'y': -0.00920254450080605, 'z': 0.02844735257721609, 'w': -0.9995295397626502}}"
2022/11/02 12:04:01.263953198,"{'stamp': {'secs': 1667387041, 'nsecs': 260415398}, 'frame_id': 'map'}","{'position': {'x': -0.0034327926114201546, 'y': -0.0042782993987202644, 'z': -0.02336236461997032}, 'orientation': {'x': 0.006832439276899632, 'y': -0.00913979516968098, 'z': 0.028418313398592132, 'w': -0.9995310149023482}}"
2022/11/02 12:04:01.297922959,"{'stamp': {'secs': 1667387041, 'nsecs': 295004958}, 'frame_id': 'map'}","{'position': {'x': -0.003267281921580434, 'y': -0.0043020593002438545, 'z': -0.02339688315987587}, 'orientation': {'x': 0.006851694706722727, 'y': -0.009110558839294897, 'z': 0.028406217253069466, 'w': -0.9995314785176819}}"
2022/11/02 12:04:01.328662813,"{'stamp': {'secs': 1667387041, 'nsecs': 326464880}, 'frame_id': 'map'}","{'position': {'x': -0.0031765250023454428, 'y': -0.004321994725614786, 'z': -0.023498374968767166}, 'orientation': {'x': 0.006884333160355114, 'y': -0.009133329003475162, 'z': 0.0284148152101657, 'w': -0.9995308041681057}}"
2022/11/02 12:04:01.361465570,"{'stamp': {'secs': 1667387041, 'nsecs': 358389044}, 'frame_id': 'map'}","{'position': {'x': -0.0031820235308259726, 'y': -0.004324623383581638, 'z': -0.02364613115787506}, 'orientation': {'x': 0.006945684977716182, 'y': -0.009098084524588561, 'z': 0.028477150399113305, 'w': -0.9995289075599227}}"
2022/11/02 12:04:01.395314108,"{'stamp': {'secs': 1667387041, 'nsecs': 393948541}, 'frame_id': 'map'}","{'position': {'x': -0.003267953172326088, 'y': -0.004313241224735975, 'z': -0.023861534893512726}, 'orientation': {'x': 0.006939459591846092, 'y': -0.009124038586828795, 'z': 0.028461724652558362, 'w': -0.9995291604410137}}"
2022/11/02 12:04:01.426845225,"{'stamp': {'secs': 1667387041, 'nsecs': 425685932}, 'frame_id': 'map'}","{'position': {'x': -0.003428532276302576, 'y': -0.004274778533726931, 'z': -0.024168869480490685}, 'orientation': {'x': 0.006986999179014795, 'y': -0.009131764054770003, 'z': 0.0284874763769985, 'w': -0.999528022476104}}"
2022/11/02 12:04:01.459518797,"{'stamp': {'secs': 1667387041, 'nsecs': 457496909}, 'frame_id': 'map'}","{'position': {'x': -0.0032272462267428637, 'y': -0.004250069614499807, 'z': -0.024131696671247482}, 'orientation': {'x': 0.007002015063931625, 'y': -0.00912496285404575, 'z': 0.028498940319793387, 'w': -0.999527685301316}}"
2022/11/02 12:04:01.494435592,"{'stamp': {'secs': 1667387041, 'nsecs': 493339460}, 'frame_id': 'map'}","{'position': {'x': -0.003116765059530735, 'y': -0.004195257090032101, 'z': -0.024212049320340157}, 'orientation': {'x': 0.006992088328654422, 'y': -0.009114296902558333, 'z': 0.028465644309469795, 'w': -0.9995287811193772}}"
2022/11/02 12:04:01.526564619,"{'stamp': {'secs': 1667387041, 'nsecs': 525150431}, 'frame_id': 'map'}","{'position': {'x': -0.003133411519229412, 'y': -0.004118898417800665, 'z': -0.0243374090641737}, 'orientation': {'x': 0.007007543709712267, 'y': -0.009120942275188388, 'z': 0.028491396033909988, 'w': -0.9995278960355585}}"
2022/11/02 12:04:01.559405325,"{'stamp': {'secs': 1667387041, 'nsecs': 557149767}, 'frame_id': 'map'}","{'position': {'x': -0.0032284436747431755, 'y': -0.004019966349005699, 'z': -0.024554813280701637}, 'orientation': {'x': 0.007053476201327301, 'y': -0.009116920873150391, 'z': 0.028414562329074577, 'w': -0.9995297926437414}}"
2022/11/02 12:04:01.594322035,"{'stamp': {'secs': 1667387041, 'nsecs': 592941553}, 'frame_id': 'map'}","{'position': {'x': -0.003401145339012146, 'y': -0.003920346964150667, 'z': -0.024886365979909897}, 'orientation': {'x': 0.007038875117132435, 'y': -0.009061516041968663, 'z': 0.02841810266434952, 'w': -0.9995302984059236}}"
2022/11/02 12:04:01.627778935,"{'stamp': {'secs': 1667387041, 'nsecs': 624955640}, 'frame_id': 'map'}","{'position': {'x': -0.0036414065398275852, 'y': -0.003819435602054, 'z': -0.02531035616993904}, 'orientation': {'x': 0.007036140099472719, 'y': -0.009033823669181545, 'z': 0.028426532034051766, 'w': -0.9995302984059236}}"
2022/11/02 12:04:01.660637849,"{'stamp': {'secs': 1667387041, 'nsecs': 657253437}, 'frame_id': 'map'}","{'position': {'x': -0.0036173216067254543, 'y': -0.0037422901950776577, 'z': -0.02546718530356884}, 'orientation': {'x': 0.0070685110193987365, 'y': -0.008987038527064803, 'z': 0.02839690279954854, 'w': -0.9995313520771364}}"
2022/11/02 12:04:01.695631373,"{'stamp': {'secs': 1667387041, 'nsecs': 693056710}, 'frame_id': 'map'}","{'position': {'x': -0.0034446704667061567, 'y': -0.0036294758319854736, 'z': -0.025325393304228783}, 'orientation': {'x': 0.0070403586532727935, 'y': -0.00904214380281346, 'z': 0.028387335464936603, 'w': -0.9995313099302878}}"
2022/11/02 12:04:01.775563110,"{'stamp': {'secs': 1667387041, 'nsecs': 725118953}, 'frame_id': 'map'}","{'position': {'x': -0.003378099761903286, 'y': -0.0035174712538719177, 'z': -0.025166360661387444}, 'orientation': {'x': 0.007039747194697131, 'y': -0.009051424341292209, 'z': 0.02839243523360635, 'w': -0.9995310991960453}}"
2022/11/02 12:04:01.779529566,"{'stamp': {'secs': 1667387041, 'nsecs': 757240636}, 'frame_id': 'map'}","{'position': {'x': -0.003381723305210471, 'y': -0.00336145400069654, 'z': -0.025138009339571}, 'orientation': {'x': 0.007065986653663512, 'y': -0.009100262907502904, 'z': 0.028380170500689694, 'w': -0.9995308041681057}}"
2022/11/02 12:04:01.797145689,"{'stamp': {'secs': 1667387041, 'nsecs': 793088522}, 'frame_id': 'map'}","{'position': {'x': -0.0034506593365222216, 'y': -0.003182285698130727, 'z': -0.025209005922079086}, 'orientation': {'x': 0.007018361044118455, 'y': -0.009125188487857795, 'z': 0.028370982487714413, 'w': -0.9995312256365908}}"
2022/11/02 12:04:01.826607785,"{'stamp': {'secs': 1667387041, 'nsecs': 825327578}, 'frame_id': 'map'}","{'position': {'x': -0.0036015422083437443, 'y': -0.0029609682969748974, 'z': -0.025380676612257957}, 'orientation': {'x': 0.007004368372730903, 'y': -0.009107131115130847, 'z': 0.028385523150450565, 'w': -0.9995310149023482}}"
2022/11/02 12:04:01.864033444,"{'stamp': {'secs': 1667387041, 'nsecs': 857340647}, 'frame_id': 'map'}","{'position': {'x': -0.003642880357801914, 'y': -0.002775157568976283, 'z': -0.02535293437540531}, 'orientation': {'x': 0.006999086187232373, 'y': -0.009142386295365703, 'z': 0.028367104977651325, 'w': -0.9995313099302878}}"
2022/11/02 12:04:01.895263455,"{'stamp': {'secs': 1667387041, 'nsecs': 893132395}, 'frame_id': 'map'}","{'position': {'x': -0.003520744852721691, 'y': -0.0026065350975841284, 'z': -0.025142546743154526}, 'orientation': {'x': 0.006997297415712564, 'y': -0.009105100987048862, 'z': 0.028366514921772223, 'w': -0.9995316471050759}}"
2022/11/02 12:04:01.926111769,"{'stamp': {'secs': 1667387041, 'nsecs': 925055216}, 'frame_id': 'map'}","{'position': {'x': -0.0034754108637571335, 'y': -0.0024933728855103254, 'z': -0.02512262389063835}, 'orientation': {'x': 0.007001452913875998, 'y': -0.00911937683257485, 'z': 0.02836621989383259, 'w': -0.9995315206645303}}"
2022/11/02 12:04:01.962099191,"{'stamp': {'secs': 1667387041, 'nsecs': 957300375}, 'frame_id': 'map'}","{'position': {'x': -0.003501835511997342, 'y': -0.0023441060911864042, 'z': -0.025205742567777634}, 'orientation': {'x': 0.006986370351327734, 'y': -0.009185342495076907, 'z': 0.028374312088746745, 'w': -0.9995307620212572}}"
2022/11/02 12:04:01.993991955,"{'stamp': {'secs': 1667387041, 'nsecs': 992947433}, 'frame_id': 'map'}","{'position': {'x': -0.0036329259164631367, 'y': -0.0021649333648383617, 'z': -0.02539604902267456}, 'orientation': {'x': 0.0069970703001753735, 'y': -0.009172045246689783, 'z': 0.028356821146614752, 'w': -0.9995313099302878}}"
2022/11/02 12:04:02.90755883,"{'stamp': {'secs': 1667387042, 'nsecs': 25054794}, 'frame_id': 'map'}","{'position': {'x': -0.003859775373712182, 'y': -0.0019424394704401493, 'z': -0.025650018826127052}, 'orientation': {'x': 0.00699216101550449, 'y': -0.009158513968048135, 'z': 0.028361499446799443, 'w': -0.9995313520771363}}"
2022/11/02 12:04:02.92578634,"{'stamp': {'secs': 1667387042, 'nsecs': 57193595}, 'frame_id': 'map'}","{'position': {'x': -0.004057327751070261, 'y': -0.001744126551784575, 'z': -0.02582215704023838}, 'orientation': {'x': 0.006969194028834402, 'y': -0.009174611018410947, 'z': 0.028397998617609888, 'w': -0.999530340552772}}"
2022/11/02 12:04:02.94912541,"{'stamp': {'secs': 1667387042, 'nsecs': 92878367}, 'frame_id': 'map'}","{'position': {'x': -0.003650839440524578, 'y': -0.001703658839687705, 'z': -0.025486517697572708}, 'orientation': {'x': 0.006994223659221556, 'y': -0.009166747009168872, 'z': 0.02836533481001391, 'w': -0.9995311413428938}}"
2022/11/02 12:04:02.126819138,"{'stamp': {'secs': 1667387042, 'nsecs': 124849059}, 'frame_id': 'map'}","{'position': {'x': -0.003275133902207017, 'y': -0.0016577370697632432, 'z': -0.025263972580432892}, 'orientation': {'x': 0.007020777079282117, 'y': -0.009161887362290278, 'z': 0.028371024634562925, 'w': -0.9995308463149541}}"
2022/11/02 12:04:02.161472388,"{'stamp': {'secs': 1667387042, 'nsecs': 157262718}, 'frame_id': 'map'}","{'position': {'x': -0.0030632326379418373, 'y': -0.001601384487003088, 'z': -0.025148414075374603}, 'orientation': {'x': 0.007010602895906038, 'y': -0.009162399380645234, 'z': 0.028323778017382117, 'w': -0.9995322371609551}}"
2022/11/02 12:04:02.195054499,"{'stamp': {'secs': 1667387042, 'nsecs': 192810637}, 'frame_id': 'map'}","{'position': {'x': -0.0029599356930702925, 'y': -0.001549735083244741, 'z': -0.02512437105178833}, 'orientation': {'x': 0.006966421638773858, 'y': -0.009199845044549767, 'z': 0.02828542438523729, 'w': -0.9995333329790164}}"
2022/11/02 12:04:02.227277211,"{'stamp': {'secs': 1667387042, 'nsecs': 225001430}, 'frame_id': 'map'}","{'position': {'x': -0.0029311899561434984, 'y': -0.0014956954400986433, 'z': -0.02521459013223648}, 'orientation': {'x': 0.00695997243008912, 'y': -0.009266686735883567, 'z': 0.028265404632194513, 'w': -0.9995332908321679}}"
2022/11/02 12:04:02.262815269,"{'stamp': {'secs': 1667387042, 'nsecs': 257099930}, 'frame_id': 'map'}","{'position': {'x': -0.0029696396086364985, 'y': -0.0014073112979531288, 'z': -0.025446560233831406}, 'orientation': {'x': 0.00693629092262787, 'y': -0.009290312925606146, 'z': 0.02823805132751095, 'w': -0.9995340073285925}}"
2022/11/02 12:04:02.296626254,"{'stamp': {'secs': 1667387042, 'nsecs': 292962731}, 'frame_id': 'map'}","{'position': {'x': -0.0025367899797856808, 'y': -0.0014544767327606678, 'z': -0.02526216022670269}, 'orientation': {'x': 0.00691599853215889, 'y': -0.009217601709390759, 'z': 0.02827809083359628, 'w': -0.9995336701538045}}"
2022/11/02 12:04:02.390782290,"{'stamp': {'secs': 1667387042, 'nsecs': 324965454}, 'frame_id': 'map'}","{'position': {'x': -0.0022632116451859474, 'y': -0.0014647584175691009, 'z': -0.025250611826777458}, 'orientation': {'x': 0.006908952188241539, 'y': -0.00919627927299323, 'z': 0.028287826755602374, 'w': -0.9995337123006529}}"
2022/11/02 12:04:02.392389007,"{'stamp': {'secs': 1667387042, 'nsecs': 357131205}, 'frame_id': 'map'}","{'position': {'x': -0.0020708413794636726, 'y': -0.0014739908510819077, 'z': -0.025326063856482506}, 'orientation': {'x': 0.006885838099191982, 'y': -0.00920410854401251, 'z': 0.02830607634100757, 'w': -0.9995332486853192}}"
2022/11/02 12:04:02.395182034,"{'stamp': {'secs': 1667387042, 'nsecs': 392931206}, 'frame_id': 'map'}","{'position': {'x': -0.001962129957973957, 'y': -0.0014725084183737636, 'z': -0.025503866374492645}, 'orientation': {'x': 0.006884630904790786, 'y': -0.00922580832641311, 'z': 0.028332797442963464, 'w': -0.9995323214546521}}"
2022/11/02 12:04:02.426067282,"{'stamp': {'secs': 1667387042, 'nsecs': 425149727}, 'frame_id': 'map'}","{'position': {'x': -0.001935784355737269, 'y': -0.0014522287528961897, 'z': -0.025822045281529427}, 'orientation': {'x': 0.00688497392416138, 'y': -0.009212949010123796, 'z': 0.02829903781730625, 'w': -0.9995333751258648}}"
2022/11/02 12:04:02.460460584,"{'stamp': {'secs': 1667387042, 'nsecs': 457251888}, 'frame_id': 'map'}","{'position': {'x': -0.0019582179374992847, 'y': -0.0014157113619148731, 'z': -0.02627631090581417}, 'orientation': {'x': 0.0068525443937741525, 'y': -0.009184829324269062, 'z': 0.02832917281399161, 'w': -0.9995329958042283}}"
2022/11/02 12:04:02.493974621,"{'stamp': {'secs': 1667387042, 'nsecs': 492966791}, 'frame_id': 'map'}","{'position': {'x': -0.001559699885547161, 'y': -0.0015277409693226218, 'z': -0.026118943467736244}, 'orientation': {'x': 0.006851483313935665, 'y': -0.009228988190887969, 'z': 0.02837469141038329, 'w': -0.9995313099302878}}"
2022/11/02 12:04:02.527112738,"{'stamp': {'secs': 1667387042, 'nsecs': 525008368}, 'frame_id': 'map'}","{'position': {'x': -0.0011919538956135511, 'y': -0.0016476607415825129, 'z': -0.025925127789378166}, 'orientation': {'x': 0.006838132311853078, 'y': -0.009238042848600478, 'z': 0.028391423709242136, 'w': -0.9995308463149541}}"
2022/11/02 12:04:02.561889475,"{'stamp': {'secs': 1667387042, 'nsecs': 557269037}, 'frame_id': 'map'}","{'position': {'x': -0.0009215233149006963, 'y': -0.0017433647299185395, 'z': -0.025872113183140755}, 'orientation': {'x': 0.006837225413747522, 'y': -0.009291481842107817, 'z': 0.028407270924282246, 'w': -0.999529919084287}}"
2022/11/02 12:04:02.594102143,"{'stamp': {'secs': 1667387042, 'nsecs': 592913465}, 'frame_id': 'map'}","{'position': {'x': -0.000703481724485755, 'y': -0.0018315254710614681, 'z': -0.025960752740502357}, 'orientation': {'x': 0.006854712651566686, 'y': -0.009327359099948524, 'z': 0.02843947111654449, 'w': -0.9995284860914376}}"
2022/11/02 12:04:02.626327985,"{'stamp': {'secs': 1667387042, 'nsecs': 625001277}, 'frame_id': 'map'}","{'position': {'x': -0.0005772497970610857, 'y': -0.0019202324328944087, 'z': -0.026185335591435432}, 'orientation': {'x': 0.0068215138588760705, 'y': -0.009324063990184768, 'z': 0.02846252544268002, 'w': -0.999528106769801}}"
2022/11/02 12:04:02.662013184,"{'stamp': {'secs': 1667387042, 'nsecs': 657201638}, 'frame_id': 'map'}","{'position': {'x': -0.000529211014509201, 'y': -0.0019935511518269777, 'z': -0.026457199826836586}, 'orientation': {'x': 0.006818769045366799, 'y': -0.009369656343561426, 'z': 0.0284225280834432, 'w': -0.9995289075599227}}"
2022/11/02 12:04:02.695202838,"{'stamp': {'secs': 1667387042, 'nsecs': 693102900}, 'frame_id': 'map'}","{'position': {'x': -0.0003476457204669714, 'y': -0.0021150403190404177, 'z': -0.026399532333016396}, 'orientation': {'x': 0.006796359105032401, 'y': -0.009384776196192457, 'z': 0.02840908323876823, 'w': -0.9995292868815593}}"
2022/11/02 12:04:02.726910380,"{'stamp': {'secs': 1667387042, 'nsecs': 725036627}, 'frame_id': 'map'}","{'position': {'x': -0.0001829068933147937, 'y': -0.0022089045960456133, 'z': -0.026213616132736206}, 'orientation': {'x': 0.006794787159291845, 'y': -0.009350735372030322, 'z': 0.028454559688311398, 'w': -0.9995283175040436}}"
2022/11/02 12:04:02.759868943,"{'stamp': {'secs': 1667387042, 'nsecs': 757339733}, 'frame_id': 'map'}","{'position': {'x': -7.323027239181101e-05, 'y': -0.002240236848592758, 'z': -0.026200639083981514}, 'orientation': {'x': 0.006792747811586752, 'y': -0.009386309123170913, 'z': 0.0285240176946574, 'w': -0.9995259572805268}}"
2022/11/02 12:04:02.795411773,"{'stamp': {'secs': 1667387042, 'nsecs': 793160095}, 'frame_id': 'map'}","{'position': {'x': -3.3846794394776225e-05, 'y': -0.00226368336006999, 'z': -0.02635878324508667}, 'orientation': {'x': 0.0067753815813209285, 'y': -0.009354407004616516, 'z': 0.028565785221531692, 'w': -0.9995252407841022}}"
2022/11/02 12:04:02.828691214,"{'stamp': {'secs': 1667387042, 'nsecs': 825182596}, 'frame_id': 'map'}","{'position': {'x': -3.9579499571118504e-05, 'y': -0.0022879960015416145, 'z': -0.02658849209547043}, 'orientation': {'x': 0.006757583263539807, 'y': -0.009371001503037045, 'z': 0.028590356834213515, 'w': -0.9995244399939804}}"
2022/11/02 12:04:02.862158266,"{'stamp': {'secs': 1667387042, 'nsecs': 857310665}, 'frame_id': 'map'}","{'position': {'x': -0.0001434721052646637, 'y': -0.0022857198491692543, 'z': -0.026941075921058655}, 'orientation': {'x': 0.006757396895444047, 'y': -0.009374632058909553, 'z': 0.02863966864697126, 'w': -0.9995230070011312}}"
2022/11/02 12:04:02.895302136,"{'stamp': {'secs': 1667387042, 'nsecs': 893215997}, 'frame_id': 'map'}","{'position': {'x': -9.856426913756877e-05, 'y': -0.002342208521440625, 'z': -0.027086062356829643}, 'orientation': {'x': 0.006729016590600278, 'y': -0.009374921489220813, 'z': 0.028673807594265077, 'w': -0.9995222483578581}}"
2022/11/02 12:04:02.927762865,"{'stamp': {'secs': 1667387042, 'nsecs': 925292253}, 'frame_id': 'map'}","{'position': {'x': 7.070528226904571e-05, 'y': -0.002420414937660098, 'z': -0.026885613799095154}, 'orientation': {'x': 0.006741193819415451, 'y': -0.009346416307874719, 'z': 0.028703226094525747, 'w': -0.9995215740082818}}"
2022/11/02 12:04:03.3046020,"{'stamp': {'secs': 1667387042, 'nsecs': 957477015}, 'frame_id': 'map'}","{'position': {'x': 0.00017469844897277653, 'y': -0.002463006880134344, 'z': -0.02684728428721428}, 'orientation': {'x': 0.006710309399080076, 'y': -0.009281579966885787, 'z': 0.028737365041819563, 'w': -0.9995214054208877}}"
2022/11/02 12:04:03.5040737,"{'stamp': {'secs': 1667387042, 'nsecs': 993289363}, 'frame_id': 'map'}","{'position': {'x': 0.0002357046614633873, 'y': -0.002479186514392495, 'z': -0.026944048702716827}, 'orientation': {'x': 0.006699574382737388, 'y': -0.00933922179144307, 'z': 0.028835398611455954, 'w': -0.9995181179667039}}"
2022/11/02 12:04:03.27212832,"{'stamp': {'secs': 1667387043, 'nsecs': 25300394}, 'frame_id': 'map'}","{'position': {'x': 0.00024305627448484302, 'y': -0.002477719448506832, 'z': -0.027214206755161285}, 'orientation': {'x': 0.006690218934820858, 'y': -0.009343971379070769, 'z': 0.028848632721888368, 'w': -0.9995177807919158}}"
2022/11/02 12:04:03.58886154,"{'stamp': {'secs': 1667387043, 'nsecs': 57449691}, 'frame_id': 'map'}","{'position': {'x': 0.00019285922462586313, 'y': -0.002429613843560219, 'z': -0.02760888822376728}, 'orientation': {'x': 0.006673569365615847, 'y': -0.009366950878086507, 'z': 0.02885385893110365, 'w': -0.9995175279108247}}"
2022/11/02 12:04:03.94262006,"{'stamp': {'secs': 1667387043, 'nsecs': 93226347}, 'frame_id': 'map'}","{'position': {'x': 0.0001484815002186224, 'y': -0.002338268794119358, 'z': -0.028077861294150352}, 'orientation': {'x': 0.006628728576158924, 'y': -0.00930000900566943, 'z': 0.028886817766639206, 'w': -0.9995174436171277}}"
2022/11/02 12:04:03.127306356,"{'stamp': {'secs': 1667387043, 'nsecs': 125336467}, 'frame_id': 'map'}","{'position': {'x': 0.0002940130070783198, 'y': -0.0023376757744699717, 'z': -0.02799941971898079}, 'orientation': {'x': 0.006623894365561949, 'y': -0.009312399355950997, 'z': 0.028898281709434093, 'w': -0.9995171064423396}}"
2022/11/02 12:04:03.161705017,"{'stamp': {'secs': 1667387043, 'nsecs': 157589804}, 'frame_id': 'map'}","{'position': {'x': 0.00033998925937339664, 'y': -0.002315344288945198, 'z': -0.02807672508060932}, 'orientation': {'x': 0.006640025907193367, 'y': -0.009303665903322258, 'z': 0.028891243185732884, 'w': -0.9995172328828852}}"
2022/11/02 12:04:03.195529423,"{'stamp': {'secs': 1667387043, 'nsecs': 193273803}, 'frame_id': 'map'}","{'position': {'x': 0.0003103198832832277, 'y': -0.0022660577669739723, 'z': -0.02833336777985096}, 'orientation': {'x': 0.0066113108147853525, 'y': -0.009280359930866686, 'z': 0.02890839695307673, 'w': -0.9995171064423396}}"
2022/11/02 12:04:03.226095799,"{'stamp': {'secs': 1667387043, 'nsecs': 225342211}, 'frame_id': 'map'}","{'position': {'x': 0.0002277800813317299, 'y': -0.0021927899215370417, 'z': -0.02872224897146225}, 'orientation': {'x': 0.006602157622350837, 'y': -0.00927897509408446, 'z': 0.028920493098599342, 'w': -0.9995168957080971}}"
2022/11/02 12:04:03.316306901,"{'stamp': {'secs': 1667387043, 'nsecs': 257735307}, 'frame_id': 'map'}","{'position': {'x': 9.839439007919282e-05, 'y': -0.0021037703845649958, 'z': -0.029289908707141876}, 'orientation': {'x': 0.0065834119059769184, 'y': -0.009303825518047381, 'z': 0.028926688685330493, 'w': -0.9995166006801575}}"
2022/11/02 12:04:03.318169024,"{'stamp': {'secs': 1667387043, 'nsecs': 293497577}, 'frame_id': 'map'}","{'position': {'x': -9.031563968164846e-05, 'y': -0.0019386282656341791, 'z': -0.029883233830332756}, 'orientation': {'x': 0.006589781430776191, 'y': -0.009260370717825568, 'z': 0.028914423952413837, 'w': -0.9995173171765821}}"
2022/11/02 12:04:03.327731254,"{'stamp': {'secs': 1667387043, 'nsecs': 325542625}, 'frame_id': 'map'}","{'position': {'x': 4.567390715237707e-05, 'y': -0.0019130520522594452, 'z': -0.029552709311246872}, 'orientation': {'x': 0.006551942945072646, 'y': -0.009238057748169971, 'z': 0.02890161131046648, 'w': -0.9995181601135524}}"
2022/11/02 12:04:03.362338957,"{'stamp': {'secs': 1667387043, 'nsecs': 357662032}, 'frame_id': 'map'}","{'position': {'x': 0.00015365533181466162, 'y': -0.0019155769841745496, 'z': -0.029374301433563232}, 'orientation': {'x': 0.0065739975183269255, 'y': -0.0092610383996386, 'z': 0.02892095671393302, 'w': -0.9995171907360367}}"
2022/11/02 12:04:03.396072684,"{'stamp': {'secs': 1667387043, 'nsecs': 393735912}, 'frame_id': 'map'}","{'position': {'x': 0.00017667413339950144, 'y': -0.0019022158812731504, 'z': -0.029332568868994713}, 'orientation': {'x': 0.006595814768604138, 'y': -0.009297311360410542, 'z': 0.02891973445532625, 'w': -0.999516727120703}}"
2022/11/02 12:04:03.427789142,"{'stamp': {'secs': 1667387043, 'nsecs': 425738122}, 'frame_id': 'map'}","{'position': {'x': 0.00011983334115939215, 'y': -0.0018612542189657688, 'z': -0.02945801429450512}, 'orientation': {'x': 0.006579075555027979, 'y': -0.009282777612391617, 'z': 0.028949911598859956, 'w': -0.9995161370648238}}"
2022/11/02 12:04:03.462978620,"{'stamp': {'secs': 1667387043, 'nsecs': 457990768}, 'frame_id': 'map'}","{'position': {'x': -1.3345234037842602e-05, 'y': -0.0017885183915495872, 'z': -0.029728436842560768}, 'orientation': {'x': 0.006573082882323399, 'y': -0.009293593465072662, 'z': 0.028932378509879453, 'w': -0.999516558533309}}"
2022/11/02 12:04:03.497899639,"{'stamp': {'secs': 1667387043, 'nsecs': 494639200}, 'frame_id': 'map'}","{'position': {'x': -0.0002881691325455904, 'y': -0.001674462459050119, 'z': -0.030255597084760666}, 'orientation': {'x': 0.006540800125043388, 'y': -0.009276389236755804, 'z': 0.02891092576398735, 'w': -0.9995175279108248}}"
2022/11/02 12:04:03.529532392,"{'stamp': {'secs': 1667387043, 'nsecs': 526780338}, 'frame_id': 'map'}","{'position': {'x': -0.00036419372190721333, 'y': -0.0016635035863146186, 'z': -0.030135173350572586}, 'orientation': {'x': 0.0065104524184820215, 'y': -0.009231021447056365, 'z': 0.028954927073832737, 'w': -0.9995169378549456}}"
2022/11/02 12:04:03.566957595,"{'stamp': {'secs': 1667387043, 'nsecs': 558668347}, 'frame_id': 'map'}","{'position': {'x': -0.0004898417391814291, 'y': -0.001668865792453289, 'z': -0.02992056868970394}, 'orientation': {'x': 0.006523620098237199, 'y': -0.009283647632004725, 'z': 0.028946497704130658, 'w': -0.9995166006801575}}"
2022/11/02 12:04:03.596343948,"{'stamp': {'secs': 1667387043, 'nsecs': 594463613}, 'frame_id': 'map'}","{'position': {'x': -0.0006902464665472507, 'y': -0.0016376805724576116, 'z': -0.029870914295315742}, 'orientation': {'x': 0.006558043701394597, 'y': -0.009279050826702879, 'z': 0.028954041990014057, 'w': -0.9995162213585209}}"
2022/11/02 12:04:03.628724519,"{'stamp': {'secs': 1667387043, 'nsecs': 626534070}, 'frame_id': 'map'}","{'position': {'x': -0.0009703354444354773, 'y': -0.0015905044274404645, 'z': -0.029947029426693916}, 'orientation': {'x': 0.006541609229289509, 'y': -0.009301867912179339, 'z': 0.02896120695426091, 'w': -0.9995158841837328}}"
2022/11/02 12:04:03.661394101,"{'stamp': {'secs': 1667387043, 'nsecs': 658694933}, 'frame_id': 'map'}","{'position': {'x': -0.0013017822057008743, 'y': -0.0015152444830164313, 'z': -0.03018435649573803}, 'orientation': {'x': 0.006542922860946807, 'y': -0.009329044233026386, 'z': 0.028987970203065372, 'w': -0.9995148305125201}}"
2022/11/02 12:04:03.696553198,"{'stamp': {'secs': 1667387043, 'nsecs': 694382747}, 'frame_id': 'map'}","{'position': {'x': -0.0015795425279065967, 'y': -0.0014611012302339077, 'z': -0.0303895752876997}, 'orientation': {'x': 0.006564557035850802, 'y': -0.009283631333028152, 'z': 0.02897625337917925, 'w': -0.9995154205683993}}"
2022/11/02 12:04:03.729510324,"{'stamp': {'secs': 1667387043, 'nsecs': 726562382}, 'frame_id': 'map'}","{'position': {'x': -0.0015815406804904342, 'y': -0.0014778099721297622, 'z': -0.03015526756644249}, 'orientation': {'x': 0.0065588301681732564, 'y': -0.009263171836890273, 'z': 0.02896790830317414, 'w': -0.9995159263305813}}"
2022/11/02 12:04:03.762132543,"{'stamp': {'secs': 1667387043, 'nsecs': 758647839}, 'frame_id': 'map'}","{'position': {'x': -0.0014840231742709875, 'y': -0.0015171755803748965, 'z': -0.029694098979234695}, 'orientation': {'x': 0.006599767764331368, 'y': -0.00924704556361492, 'z': 0.028909450624289568, 'w': -0.9995174857639763}}"
2022/11/02 12:04:03.796945014,"{'stamp': {'secs': 1667387043, 'nsecs': 794544542}, 'frame_id': 'map'}","{'position': {'x': -0.0014606674667447805, 'y': -0.001562071731314063, 'z': -0.029447084292769432}, 'orientation': {'x': 0.0065891135843270335, 'y': -0.00930223842578314, 'z': 0.028953662668377456, 'w': -0.9995157577431872}}"
2022/11/02 12:04:03.828611257,"{'stamp': {'secs': 1667387043, 'nsecs': 826733309}, 'frame_id': 'map'}","{'position': {'x': -0.0014993014046922326, 'y': -0.001590198720805347, 'z': -0.029412496834993362}, 'orientation': {'x': 0.006580238462311013, 'y': -0.009301795143011205, 'z': 0.028928543146664987, 'w': -0.9995166006801575}}"
2022/11/02 12:04:03.935555275,"{'stamp': {'secs': 1667387043, 'nsecs': 858583856}, 'frame_id': 'map'}","{'position': {'x': -0.0016417921287938952, 'y': -0.001621122588403523, 'z': -0.02952435240149498}, 'orientation': {'x': 0.006545319633683611, 'y': -0.009332596751374699, 'z': 0.028919818749023274, 'w': -0.9995168114144001}}"
2022/11/02 12:04:03.937254610,"{'stamp': {'secs': 1667387043, 'nsecs': 894381838}, 'frame_id': 'map'}","{'position': {'x': -0.0019208427984267473, 'y': -0.001658175722695887, 'z': -0.029926765710115433}, 'orientation': {'x': 0.006514776833311752, 'y': -0.009327578148315491, 'z': 0.028909998533320214, 'w': -0.9995172750297336}}"
2022/11/02 12:04:03.938669622,"{'stamp': {'secs': 1667387043, 'nsecs': 926455663}, 'frame_id': 'map'}","{'position': {'x': -0.0021205078810453415, 'y': -0.001705109141767025, 'z': -0.030178889632225037}, 'orientation': {'x': 0.006501143480271368, 'y': -0.009322016246037197, 'z': 0.02894434821485653, 'w': -0.9995164742396121}}"
2022/11/02 12:04:03.959852617,"{'stamp': {'secs': 1667387043, 'nsecs': 958646410}, 'frame_id': 'map'}","{'position': {'x': -0.0020724304486066103, 'y': -0.0018086627824231982, 'z': -0.02990633063018322}, 'orientation': {'x': 0.006494223165309231, 'y': -0.009369246070332954, 'z': 0.02893794189388288, 'w': -0.9995162213585209}}"
2022/11/02 12:04:03.997577469,"{'stamp': {'secs': 1667387043, 'nsecs': 994473872}, 'frame_id': 'map'}","{'position': {'x': -0.002119723241776228, 'y': -0.0018835129449144006, 'z': -0.029818227514624596}, 'orientation': {'x': 0.006507009630112351, 'y': -0.009357471129894096, 'z': 0.028994755845675624, 'w': -0.9995146197782775}}"
2022/11/02 12:04:04.27477517,"{'stamp': {'secs': 1667387044, 'nsecs': 26496489}, 'frame_id': 'map'}","{'position': {'x': -0.0022136904299259186, 'y': -0.0019474575528874993, 'z': -0.02987661585211754}, 'orientation': {'x': 0.006494731890941647, 'y': -0.00936217165595595, 'z': 0.02898506207051804, 'w': -0.9995149569530657}}"
2022/11/02 12:04:04.61962605,"{'stamp': {'secs': 1667387044, 'nsecs': 58598029}, 'frame_id': 'map'}","{'position': {'x': -0.0023492397740483284, 'y': -0.001990004675462842, 'z': -0.03009541518986225}, 'orientation': {'x': 0.006493658628029764, 'y': -0.009337632805863371, 'z': 0.029018147346599077, 'w': -0.999514240456641}}"
2022/11/02 12:04:04.96873881,"{'stamp': {'secs': 1667387044, 'nsecs': 94398359}, 'frame_id': 'map'}","{'position': {'x': -0.0024995864368975163, 'y': -0.002066958462819457, 'z': -0.030377928167581558}, 'orientation': {'x': 0.006468113521928986, 'y': -0.009313729121948743, 'z': 0.029012120347262083, 'w': -0.9995147883656715}}"
2022/11/02 12:04:04.129763414,"{'stamp': {'secs': 1667387044, 'nsecs': 126469439}, 'frame_id': 'map'}","{'position': {'x': -0.0026400242932140827, 'y': -0.0021436000242829323, 'z': -0.03070943057537079}, 'orientation': {'x': 0.006499144797689639, 'y': -0.009291531562218168, 'z': 0.029008116396653516, 'w': -0.999514914806217}}"
2022/11/02 12:04:04.237078847,"{'stamp': {'secs': 1667387044, 'nsecs': 158820948}, 'frame_id': 'map'}","{'position': {'x': -0.002497216919437051, 'y': -0.002225547796115279, 'z': -0.030295470729470253}, 'orientation': {'x': 0.006519676239815017, 'y': -0.009261893766636406, 'z': 0.029014564864475734, 'w': -0.9995148726593686}}"
2022/11/02 12:04:04.239727418,"{'stamp': {'secs': 1667387044, 'nsecs': 194623408}, 'frame_id': 'map'}","{'position': {'x': -0.0024277332704514265, 'y': -0.0022836860734969378, 'z': -0.030049115419387817}, 'orientation': {'x': 0.006540930105265652, 'y': -0.009310129517668108, 'z': 0.029014311983384666, 'w': -0.9995142826034894}}"
2022/11/02 12:04:04.241022405,"{'stamp': {'secs': 1667387044, 'nsecs': 226506253}, 'frame_id': 'map'}","{'position': {'x': -0.0024629912804812193, 'y': -0.002349461428821087, 'z': -0.029937800019979477}, 'orientation': {'x': 0.006523437681408487, 'y': -0.009355540277396691, 'z': 0.02902375287745107, 'w': -0.9995136925476102}}"
2022/11/02 12:04:04.260034495,"{'stamp': {'secs': 1667387044, 'nsecs': 258828702}, 'frame_id': 'map'}","{'position': {'x': -0.0026018840726464987, 'y': -0.0024654779117554426, 'z': -0.029992960393428802}, 'orientation': {'x': 0.006507686119958176, 'y': -0.009382713634793455, 'z': 0.029064719614203705, 'w': -0.9995123438484579}}"
2022/11/02 12:04:04.297488588,"{'stamp': {'secs': 1667387044, 'nsecs': 295071974}, 'frame_id': 'map'}","{'position': {'x': -0.002872045151889324, 'y': -0.002626006957143545, 'z': -0.030268611386418343}, 'orientation': {'x': 0.006509838078774137, 'y': -0.009372024304976006, 'z': 0.02913776010267305, 'w': -0.9995102786528809}}"
2022/11/02 12:04:04.328718651,"{'stamp': {'secs': 1667387044, 'nsecs': 326815722}, 'frame_id': 'map'}","{'position': {'x': -0.003177839098498225, 'y': -0.002758362563326955, 'z': -0.030656101182103157}, 'orientation': {'x': 0.006532196981909166, 'y': -0.009362699314742972, 'z': 0.029143702808313077, 'w': -0.9995100679186383}}"
2022/11/02 12:04:04.365237688,"{'stamp': {'secs': 1667387044, 'nsecs': 359189332}, 'frame_id': 'map'}","{'position': {'x': -0.0032185278832912445, 'y': -0.0028666576836258173, 'z': -0.030458947643637657}, 'orientation': {'x': 0.006551206856948849, 'y': -0.009371464212871968, 'z': 0.029130005082546984, 'w': -0.9995102786528809}}"
2022/11/02 12:04:04.397102825,"{'stamp': {'secs': 1667387044, 'nsecs': 395082664}, 'frame_id': 'map'}","{'position': {'x': -0.0031986902467906475, 'y': -0.0029762659687548876, 'z': -0.030215466395020485}, 'orientation': {'x': 0.006563030529681297, 'y': -0.009399456141092154, 'z': 0.02915988719814122, 'w': -0.9995090563942741}}"
2022/11/02 12:04:04.429458124,"{'stamp': {'secs': 1667387044, 'nsecs': 426787463}, 'frame_id': 'map'}","{'position': {'x': -0.0032384993974119425, 'y': -0.0030903285369277, 'z': -0.03015017695724964}, 'orientation': {'x': 0.0065812354986960996, 'y': -0.00943682047474995, 'z': 0.02920173901871259, 'w': -0.9995073283734851}}"
2022/11/02 12:04:04.463763502,"{'stamp': {'secs': 1667387044, 'nsecs': 459328230}, 'frame_id': 'map'}","{'position': {'x': -0.003347826423123479, 'y': -0.0031909639947116375, 'z': -0.030223706737160683}, 'orientation': {'x': 0.00657969055328037, 'y': -0.009460609736556318, 'z': 0.029210547710051327, 'w': -0.9995068647581514}}"
2022/11/02 12:04:04.538119263,"{'stamp': {'secs': 1667387044, 'nsecs': 494817386}, 'frame_id': 'map'}","{'position': {'x': -0.0034249378368258476, 'y': -0.003357623005285859, 'z': -0.030244464054703712}, 'orientation': {'x': 0.006554078769548161, 'y': -0.009398732565314007, 'z': 0.029311320824840947, 'w': -0.9995047152688774}}"
2022/11/02 12:04:04.540205231,"{'stamp': {'secs': 1667387044, 'nsecs': 527008970}, 'frame_id': 'map'}","{'position': {'x': -0.003470279974862933, 'y': -0.003501901403069496, 'z': -0.030282221734523773}, 'orientation': {'x': 0.006533263988648224, 'y': -0.009384352093529317, 'z': 0.02934225661164791, 'w': -0.9995040409193012}}"
2022/11/02 12:04:04.562434158,"{'stamp': {'secs': 1667387044, 'nsecs': 559141064}, 'frame_id': 'map'}","{'position': {'x': -0.003390843980014324, 'y': -0.0036036625970155, 'z': -0.030036404728889465}, 'orientation': {'x': 0.006515593922410033, 'y': -0.009401214784200721, 'z': 0.02930348151101786, 'w': -0.9995051367373625}}"
2022/11/02 12:04:04.597372215,"{'stamp': {'secs': 1667387044, 'nsecs': 594930476}, 'frame_id': 'map'}","{'position': {'x': -0.003192742122337222, 'y': -0.0036866473965346813, 'z': -0.029505474492907524}, 'orientation': {'x': 0.006458078456080219, 'y': -0.009417291995910232, 'z': 0.029274315891848313, 'w': -0.9995062325554238}}"
2022/11/02 12:04:04.629324039,"{'stamp': {'secs': 1667387044, 'nsecs': 626976111}, 'frame_id': 'map'}","{'position': {'x': -0.003071283223107457, 'y': -0.0037922014016658068, 'z': -0.02916000597178936}, 'orientation': {'x': 0.006462616157012473, 'y': -0.00941572037944193, 'z': 0.02929125892494966, 'w': -0.9995057267932417}}"
2022/11/02 12:04:04.663005418,"{'stamp': {'secs': 1667387044, 'nsecs': 659071919}, 'frame_id': 'map'}","{'position': {'x': -0.0030106757767498493, 'y': -0.0038957358337938786, 'z': -0.028994198888540268}, 'orientation': {'x': 0.006493850758389966, 'y': -0.009489981974065236, 'z': 0.02927890989833598, 'w': -0.9995051788842111}}"
2022/11/02 12:04:04.695732219,"{'stamp': {'secs': 1667387044, 'nsecs': 694818961}, 'frame_id': 'map'}","{'position': {'x': -0.002984860213473439, 'y': -0.004016804043203592, 'z': -0.02895861119031906}, 'orientation': {'x': 0.0065545466654210825, 'y': -0.009526916607431574, 'z': 0.029263694886023595, 'w': -0.9995048838562715}}"
2022/11/02 12:04:04.729009204,"{'stamp': {'secs': 1667387044, 'nsecs': 727206759}, 'frame_id': 'map'}","{'position': {'x': -0.00302570266649127, 'y': -0.004134350456297398, 'z': -0.02907630242407322}, 'orientation': {'x': 0.006538871659769825, 'y': -0.009557859308955903, 'z': 0.029266982340207415, 'w': -0.9995045466814834}}"
2022/11/02 12:04:04.762190502,"{'stamp': {'secs': 1667387044, 'nsecs': 759032817}, 'frame_id': 'map'}","{'position': {'x': -0.0030431323684751987, 'y': -0.004251397680491209, 'z': -0.029113510623574257}, 'orientation': {'x': 0.006564622725665473, 'y': -0.00961369005379817, 'z': 0.02922209594654329, 'w': -0.9995051788842111}}"
2022/11/02 12:04:04.803995233,"{'stamp': {'secs': 1667387044, 'nsecs': 794899226}, 'frame_id': 'map'}","{'position': {'x': -0.0028755657840520144, 'y': -0.0043361312709748745, 'z': -0.028663692995905876}, 'orientation': {'x': 0.006547381207265851, 'y': -0.009679557181578221, 'z': 0.029167389337176164, 'w': -0.9995062747022724}}"
2022/11/02 12:04:04.830014612,"{'stamp': {'secs': 1667387044, 'nsecs': 827144215}, 'frame_id': 'map'}","{'position': {'x': -0.002774035558104515, 'y': -0.004448447842150927, 'z': -0.028391916304826736}, 'orientation': {'x': 0.006532280946333934, 'y': -0.009681967289841312, 'z': 0.029164818379417035, 'w': -0.9995064011428179}}"
2022/11/02 12:04:04.862690489,"{'stamp': {'secs': 1667387044, 'nsecs': 859130624}, 'frame_id': 'map'}","{'position': {'x': -0.0027267264667898417, 'y': -0.004565893206745386, 'z': -0.028294328600168228}, 'orientation': {'x': 0.006485560012306719, 'y': -0.0097044155903933, 'z': 0.02915588324753271, 'w': -0.999506738317606}}"
2022/11/02 12:04:04.897767078,"{'stamp': {'secs': 1667387044, 'nsecs': 895070244}, 'frame_id': 'map'}","{'position': {'x': -0.002565754810348153, 'y': -0.004632089752703905, 'z': -0.028194965794682503}, 'orientation': {'x': 0.006441726631310881, 'y': -0.009721186743378095, 'z': 0.02920350918635012, 'w': -0.9995054739121507}}"
2022/11/02 12:04:04.930088312,"{'stamp': {'secs': 1667387044, 'nsecs': 927016234}, 'frame_id': 'map'}","{'position': {'x': -0.0024353526532649994, 'y': -0.004673754796385765, 'z': -0.028216402977705002}, 'orientation': {'x': 0.0064419617317002294, 'y': -0.009727894019191899, 'z': 0.029232084749640397, 'w': -0.9995046309751804}}"
2022/11/02 12:04:04.963776290,"{'stamp': {'secs': 1667387044, 'nsecs': 959357591}, 'frame_id': 'map'}","{'position': {'x': -0.002344307489693165, 'y': -0.004737370647490025, 'z': -0.028360042721033096}, 'orientation': {'x': 0.006418592127381574, 'y': -0.009724431886077307, 'z': 0.029226226337697392, 'w': -0.99950492600312}}"
2022/11/02 12:04:04.995992915,"{'stamp': {'secs': 1667387044, 'nsecs': 995034670}, 'frame_id': 'map'}","{'position': {'x': -0.00207878602668643, 'y': -0.004728501662611961, 'z': -0.02782430499792099}, 'orientation': {'x': 0.006425499765361933, 'y': -0.009740673404641558, 'z': 0.029193141061616357, 'w': -0.9995057267932417}}"
2022/11/02 12:04:05.29540931,"{'stamp': {'secs': 1667387045, 'nsecs': 27075850}, 'frame_id': 'map'}","{'position': {'x': -0.0018988789524883032, 'y': -0.00472790002822876, 'z': -0.027436736971139908}, 'orientation': {'x': 0.006418566608781891, 'y': -0.009736611502116322, 'z': 0.029217164765267645, 'w': -0.9995050524436655}}"
2022/11/02 12:04:05.62333877,"{'stamp': {'secs': 1667387045, 'nsecs': 59166720}, 'frame_id': 'map'}","{'position': {'x': -0.001784268650226295, 'y': -0.004772635642439127, 'z': -0.027223730459809303}, 'orientation': {'x': 0.006383291507575669, 'y': -0.009675421686704216, 'z': 0.029259353760626994, 'w': -0.999504673122029}}"
2022/11/02 12:04:05.137485908,"{'stamp': {'secs': 1667387045, 'nsecs': 94932280}, 'frame_id': 'map'}","{'position': {'x': -0.0017136998940259218, 'y': -0.004833949729800224, 'z': -0.02714676223695278}, 'orientation': {'x': 0.006390088016170304, 'y': -0.009625968616149509, 'z': 0.02932539787224353, 'w': -0.9995031136886341}}"
2022/11/02 12:04:05.138849269,"{'stamp': {'secs': 1667387045, 'nsecs': 127325250}, 'frame_id': 'map'}","{'position': {'x': -0.0017563042929396033, 'y': -0.004904796835035086, 'z': -0.027201049029827118}, 'orientation': {'x': 0.006374079293089626, 'y': -0.009651249645902586, 'z': 0.029339095598009624, 'w': -0.9995025657796034}}"
2022/11/02 12:04:05.163787920,"{'stamp': {'secs': 1667387045, 'nsecs': 159465186}, 'frame_id': 'map'}","{'position': {'x': -0.0018643265357241035, 'y': -0.005010946188122034, 'z': -0.027383243665099144}, 'orientation': {'x': 0.006334228624641941, 'y': -0.009688427940736875, 'z': 0.029310983650052858, 'w': -0.999503366569725}}"
2022/11/02 12:04:05.197175141,"{'stamp': {'secs': 1667387045, 'nsecs': 195093817}, 'frame_id': 'map'}","{'position': {'x': -0.001836594077758491, 'y': -0.005061246454715729, 'z': -0.027107462286949158}, 'orientation': {'x': 0.006259271607018204, 'y': -0.009633372467416633, 'z': 0.029334501591521844, 'w': -0.9995037037445131}}"
2022/11/02 12:04:05.231551868,"{'stamp': {'secs': 1667387045, 'nsecs': 227044601}, 'frame_id': 'map'}","{'position': {'x': -0.001807870459742844, 'y': -0.005132793448865414, 'z': -0.02680310234427452}, 'orientation': {'x': 0.006263649940179528, 'y': -0.009613056040073112, 'z': 0.029316125565571116, 'w': -0.9995043780940893}}"
2022/11/02 12:04:05.261520523,"{'stamp': {'secs': 1667387045, 'nsecs': 259251372}, 'frame_id': 'map'}","{'position': {'x': -0.0018209427362307906, 'y': -0.005244152154773474, 'z': -0.026648884639143944}, 'orientation': {'x': 0.006244687151072165, 'y': -0.00962514494160615, 'z': 0.029358525295173132, 'w': -0.9995031136886341}}"
2022/11/02 12:04:05.297497592,"{'stamp': {'secs': 1667387045, 'nsecs': 295132740}, 'frame_id': 'map'}","{'position': {'x': -0.0017566918395459652, 'y': -0.005418031010776758, 'z': -0.026406090706586838}, 'orientation': {'x': 0.006196982845458406, 'y': -0.009603459729502786, 'z': 0.02941837382005863, 'w': -0.9995019335768758}}"
2022/11/02 12:04:05.329932565,"{'stamp': {'secs': 1667387045, 'nsecs': 327223213}, 'frame_id': 'map'}","{'position': {'x': -0.001677525695413351, 'y': -0.005560487043112516, 'z': -0.02624662220478058}, 'orientation': {'x': 0.006174663784266109, 'y': -0.009587300035093652, 'z': 0.02943548544055402, 'w': -0.9995016806957846}}"
2022/11/02 12:04:05.438247062,"{'stamp': {'secs': 1667387045, 'nsecs': 359470871}, 'frame_id': 'map'}","{'position': {'x': -0.0016479140613228083, 'y': -0.005719772074371576, 'z': -0.02619321085512638}, 'orientation': {'x': 0.0061800118242154355, 'y': -0.009614165358296808, 'z': 0.029442439670558318, 'w': -0.999501132786754}}"
2022/11/02 12:04:05.440104285,"{'stamp': {'secs': 1667387045, 'nsecs': 395214211}, 'frame_id': 'map'}","{'position': {'x': -0.001530923182144761, 'y': -0.0058234878815710545, 'z': -0.02594313584268093}, 'orientation': {'x': 0.006183401023525771, 'y': -0.009627866706057642, 'z': 0.029460478521720956, 'w': -0.9995004584371778}}"
2022/11/02 12:04:05.441128515,"{'stamp': {'secs': 1667387045, 'nsecs': 427352424}, 'frame_id': 'map'}","{'position': {'x': -0.0013491485733538866, 'y': -0.0058800289407372475, 'z': -0.025514835491776466}, 'orientation': {'x': 0.006197223049567691, 'y': -0.009629238618903897, 'z': 0.029458666207234974, 'w': -0.9995004162903293}}"
2022/11/02 12:04:05.464573082,"{'stamp': {'secs': 1667387045, 'nsecs': 459652037}, 'frame_id': 'map'}","{'position': {'x': -0.0012177069438621402, 'y': -0.005988551303744316, 'z': -0.025233834981918335}, 'orientation': {'x': 0.006135815914467954, 'y': -0.009634926303183217, 'z': 0.029514721515754516, 'w': -0.999499067591177}}"
2022/11/02 12:04:05.498555337,"{'stamp': {'secs': 1667387045, 'nsecs': 496204801}, 'frame_id': 'map'}","{'position': {'x': -0.0011425013653934002, 'y': -0.006207712925970554, 'z': -0.025062620639801025}, 'orientation': {'x': 0.006129726682674891, 'y': -0.00963142054149497, 'z': 0.029480371834218144, 'w': -0.9995002055560868}}"
2022/11/02 12:04:05.528705906,"{'stamp': {'secs': 1667387045, 'nsecs': 527405265}, 'frame_id': 'map'}","{'position': {'x': -0.0011675956193357706, 'y': -0.006431109271943569, 'z': -0.025115912780165672}, 'orientation': {'x': 0.0061568886801788925, 'y': -0.009615531508878618, 'z': 0.02945112192135152, 'w': -0.9995010484930571}}"
2022/11/02 12:04:05.564494305,"{'stamp': {'secs': 1667387045, 'nsecs': 559634917}, 'frame_id': 'map'}","{'position': {'x': -0.0012119963066652417, 'y': -0.006670036353170872, 'z': -0.025305701419711113}, 'orientation': {'x': 0.006145795662578051, 'y': -0.009611115803316467, 'z': 0.02945297638268607, 'w': -0.999501132786754}}"
2022/11/02 12:04:05.598642293,"{'stamp': {'secs': 1667387045, 'nsecs': 595423808}, 'frame_id': 'map'}","{'position': {'x': -0.0012315800413489342, 'y': -0.006864192895591259, 'z': -0.025402119383215904}, 'orientation': {'x': 0.006151946962190991, 'y': -0.009622575300936, 'z': 0.02948471295961469, 'w': -0.9994999948218443}}"
2022/11/02 12:04:05.629511857,"{'stamp': {'secs': 1667387045, 'nsecs': 627424427}, 'frame_id': 'map'}","{'position': {'x': -0.0010810898384079337, 'y': -0.006884614937007427, 'z': -0.025093650445342064}, 'orientation': {'x': 0.006188405303241929, 'y': -0.009652865714125174, 'z': 0.029494743909560306, 'w': -0.9994992361785711}}"
2022/11/02 12:04:05.667779985,"{'stamp': {'secs': 1667387045, 'nsecs': 662454801}, 'frame_id': 'map'}","{'position': {'x': -0.0009184718946926296, 'y': -0.006990640424191952, 'z': -0.02497534640133381}, 'orientation': {'x': 0.0062127966393647205, 'y': -0.00966709801339557, 'z': 0.029448298082501323, 'w': -0.9995002477029353}}"
2022/11/02 12:04:05.697417885,"{'stamp': {'secs': 1667387045, 'nsecs': 695497226}, 'frame_id': 'map'}","{'position': {'x': -0.0007799482555128634, 'y': -0.007115409709513187, 'z': -0.024858305230736732}, 'orientation': {'x': 0.006187450249069227, 'y': -0.009724410154108543, 'z': 0.029456221690021323, 'w': -0.9994996576470562}}"
2022/11/02 12:04:05.735624218,"{'stamp': {'secs': 1667387045, 'nsecs': 727909330}, 'frame_id': 'map'}","{'position': {'x': -0.0006734844064339995, 'y': -0.007227114401757717, 'z': -0.02482323721051216}, 'orientation': {'x': 0.006201777543384901, 'y': -0.009719154968934841, 'z': 0.029484586519069156, 'w': -0.9994987725632374}}"
2022/11/02 12:04:05.762919105,"{'stamp': {'secs': 1667387045, 'nsecs': 759936284}, 'frame_id': 'map'}","{'position': {'x': -0.0006107412627898157, 'y': -0.00735696405172348, 'z': -0.024943014606833458}, 'orientation': {'x': 0.006193351631041388, 'y': -0.009717074462197998, 'z': 0.029468486422938034, 'w': -0.9994993626191165}}"
2022/11/02 12:04:05.799237867,"{'stamp': {'secs': 1667387045, 'nsecs': 796465865}, 'frame_id': 'map'}","{'position': {'x': -0.0005826568813063204, 'y': -0.007500309497117996, 'z': -0.02520185522735119}, 'orientation': {'x': 0.006182832370343126, 'y': -0.009666088300028705, 'z': 0.02951480580945154, 'w': -0.9994984775352977}}"
2022/11/02 12:04:05.831620249,"{'stamp': {'secs': 1667387045, 'nsecs': 828457541}, 'frame_id': 'map'}","{'position': {'x': -0.00039228820241987705, 'y': -0.007437056861817837, 'z': -0.0248445812612772}, 'orientation': {'x': 0.006197346362026811, 'y': -0.00968973301131557, 'z': 0.02953954600952735, 'w': -0.999497423864085}}"
2022/11/02 12:04:05.864614816,"{'stamp': {'secs': 1667387045, 'nsecs': 860762181}, 'frame_id': 'map'}","{'position': {'x': -0.0002462822012603283, 'y': -0.007389259524643421, 'z': -0.02465648762881756}, 'orientation': {'x': 0.006166518082610743, 'y': -0.009728498069141847, 'z': 0.02957929048767316, 'w': -0.9994961173117811}}"
2022/11/02 12:04:05.898545289,"{'stamp': {'secs': 1667387045, 'nsecs': 896295807}, 'frame_id': 'map'}","{'position': {'x': -0.00011016540520358831, 'y': -0.007369067054241896, 'z': -0.024668242782354355}, 'orientation': {'x': 0.00612698894851908, 'y': -0.009721760500280676, 'z': 0.02962868659412793, 'w': -0.999494937200023}}"
2022/11/02 12:04:05.931024212,"{'stamp': {'secs': 1667387045, 'nsecs': 928936282}, 'frame_id': 'map'}","{'position': {'x': -4.1010440327227116e-05, 'y': -0.0074400887824594975, 'z': -0.02479536086320877}, 'orientation': {'x': 0.006136759938020147, 'y': -0.009748304289127808, 'z': 0.02966906327500135, 'w': -0.9994934199134766}}"
2022/11/02 12:04:05.963723078,"{'stamp': {'secs': 1667387045, 'nsecs': 960576740}, 'frame_id': 'map'}","{'position': {'x': -1.1666110367514193e-05, 'y': -0.007577246520668268, 'z': -0.025030873715877533}, 'orientation': {'x': 0.006124616048020692, 'y': -0.009775831778833741, 'z': 0.029686512070284832, 'w': -0.9994927455639004}}"
2022/11/02 12:04:06.41083795,"{'stamp': {'secs': 1667387045, 'nsecs': 997074589}, 'frame_id': 'map'}","{'position': {'x': -6.424921593861654e-06, 'y': -0.007710777223110199, 'z': -0.025381023064255714}, 'orientation': {'x': 0.00609745734323923, 'y': -0.00976400596583164, 'z': 0.0296876921820432, 'w': -0.9994929984449914}}"
2022/11/02 12:04:06.42483488,"{'stamp': {'secs': 1667387046, 'nsecs': 29494259}, 'frame_id': 'map'}","{'position': {'x': 0.00016941173817031085, 'y': -0.007641128730028868, 'z': -0.025201262906193733}, 'orientation': {'x': 0.0061015549718040265, 'y': -0.009786124994129636, 'z': 0.029712558822664548, 'w': -0.9994919869206271}}"
2022/11/02 12:04:06.63507843,"{'stamp': {'secs': 1667387046, 'nsecs': 61355428}, 'frame_id': 'map'}","{'position': {'x': 0.0002870431635528803, 'y': -0.00757874408736825, 'z': -0.025089703500270844}, 'orientation': {'x': 0.0060805065722398825, 'y': -0.009829760153228572, 'z': 0.029790024730227682, 'w': -0.9994893738160195}}"
2022/11/02 12:04:06.99192295,"{'stamp': {'secs': 1667387046, 'nsecs': 96917191}, 'frame_id': 'map'}","{'position': {'x': 0.0005608662031590939, 'y': -0.007375090382993221, 'z': -0.02483542636036873}, 'orientation': {'x': 0.006081873875274581, 'y': -0.009877030313375444, 'z': 0.0298083586093299, 'w': -0.9994883201448067}}"
2022/11/02 12:04:06.131818228,"{'stamp': {'secs': 1667387046, 'nsecs': 129634117}, 'frame_id': 'map'}","{'position': {'x': 0.0008133887895382941, 'y': -0.007210508920252323, 'z': -0.0246549304574728}, 'orientation': {'x': 0.006053956033311543, 'y': -0.00984804200731468, 'z': 0.02978332338131434, 'w': -0.999489584550262}}"
2022/11/02 12:04:06.164159458,"{'stamp': {'secs': 1667387046, 'nsecs': 160873694}, 'frame_id': 'map'}","{'position': {'x': 0.001049801823683083, 'y': -0.007114105857908726, 'z': -0.02462361380457878}, 'orientation': {'x': 0.006101865310903413, 'y': -0.009848149843977862, 'z': 0.02977940372440291, 'w': -0.9994893738160194}}"
2022/11/02 12:04:06.199131970,"{'stamp': {'secs': 1667387046, 'nsecs': 196656606}, 'frame_id': 'map'}","{'position': {'x': 0.001280223368667066, 'y': -0.007077439222484827, 'z': -0.02476334385573864}, 'orientation': {'x': 0.006107296162824619, 'y': -0.009850362059616303, 'z': 0.029787622359862542, 'w': -0.9994890787880799}}"
2022/11/02 12:04:06.232460987,"{'stamp': {'secs': 1667387046, 'nsecs': 229009411}, 'frame_id': 'map'}","{'position': {'x': 0.0014998448314145207, 'y': -0.006980373989790678, 'z': -0.02466113120317459}, 'orientation': {'x': 0.006136052661218574, 'y': -0.009839674705432377, 'z': 0.029825638817219335, 'w': -0.9994878986763216}}"
2022/11/02 12:04:06.337735818,"{'stamp': {'secs': 1667387046, 'nsecs': 260843251}, 'frame_id': 'map'}","{'position': {'x': 0.0016879108734428883, 'y': -0.00683567626401782, 'z': -0.024349138140678406}, 'orientation': {'x': 0.00610583024274985, 'y': -0.009854193471563747, 'z': 0.029879544636464805, 'w': -0.9994863392429267}}"
2022/11/02 12:04:06.339249860,"{'stamp': {'secs': 1667387046, 'nsecs': 296659944}, 'frame_id': 'map'}","{'position': {'x': 0.0018846244784072042, 'y': -0.0067065502516925335, 'z': -0.024155311286449432}, 'orientation': {'x': 0.006110639593291648, 'y': -0.009835487514814497, 'z': 0.029873096168642588, 'w': -0.9994866342708664}}"
2022/11/02 12:04:06.340274391,"{'stamp': {'secs': 1667387046, 'nsecs': 329236958}, 'frame_id': 'map'}","{'position': {'x': 0.002025200752541423, 'y': -0.006634838879108429, 'z': -0.024137085303664207}, 'orientation': {'x': 0.00611579006988858, 'y': -0.00982564688423171, 'z': 0.0299177718280641, 'w': -0.9994853698654109}}"
2022/11/02 12:04:06.363708337,"{'stamp': {'secs': 1667387046, 'nsecs': 361003512}, 'frame_id': 'map'}","{'position': {'x': 0.0021325917914509773, 'y': -0.006592851597815752, 'z': -0.02426270768046379}, 'orientation': {'x': 0.006121986973708699, 'y': -0.009837097656136514, 'z': 0.029959370767544347, 'w': -0.9994839790194101}}"
2022/11/02 12:04:06.399000552,"{'stamp': {'secs': 1667387046, 'nsecs': 396521416}, 'frame_id': 'map'}","{'position': {'x': 0.002213971456512809, 'y': -0.006611169315874577, 'z': -0.024499671533703804}, 'orientation': {'x': 0.006146337973980375, 'y': -0.00981877892355796, 'z': 0.029993383274292684, 'w': -0.9994830096418943}}"
2022/11/02 12:04:06.430443364,"{'stamp': {'secs': 1667387046, 'nsecs': 428929154}, 'frame_id': 'map'}","{'position': {'x': 0.002276636892929673, 'y': -0.006620002910494804, 'z': -0.024671092629432678}, 'orientation': {'x': 0.006147983347433569, 'y': -0.009800195785359449, 'z': 0.03000413072066299, 'w': -0.9994828832013487}}"
2022/11/02 12:04:06.465420357,"{'stamp': {'secs': 1667387046, 'nsecs': 460479464}, 'frame_id': 'map'}","{'position': {'x': 0.0023371444549411535, 'y': -0.006545413751155138, 'z': -0.024450674653053284}, 'orientation': {'x': 0.006125138109179395, 'y': -0.009791488839147156, 'z': 0.030039407632866666, 'w': -0.99948199811753}}"
2022/11/02 12:04:06.498690734,"{'stamp': {'secs': 1667387046, 'nsecs': 496351946}, 'frame_id': 'map'}","{'position': {'x': 0.002384895458817482, 'y': -0.006460453849285841, 'z': -0.024340635165572166}, 'orientation': {'x': 0.006076643879428309, 'y': -0.00979535087341422, 'z': 0.030084504760773234, 'w': -0.9994809022994687}}"
2022/11/02 12:04:06.533211542,"{'stamp': {'secs': 1667387046, 'nsecs': 529538476}, 'frame_id': 'map'}","{'position': {'x': 0.0024172510020434856, 'y': -0.006409674882888794, 'z': -0.024326862767338753}, 'orientation': {'x': 0.006081501962263698, 'y': -0.009803255383143536, 'z': 0.03007835132089065, 'w': -0.9994809865931659}}"
2022/11/02 12:04:06.562530896,"{'stamp': {'secs': 1667387046, 'nsecs': 560774418}, 'frame_id': 'map'}","{'position': {'x': 0.002447559032589197, 'y': -0.006444947794079781, 'z': -0.02445686236023903}, 'orientation': {'x': 0.006043341612931877, 'y': -0.009787845770928996, 'z': 0.02998807277138027, 'w': -0.9994841054599557}}"
2022/11/02 12:04:06.597886260,"{'stamp': {'secs': 1667387046, 'nsecs': 596882382}, 'frame_id': 'map'}","{'position': {'x': 0.0024444074369966984, 'y': -0.006561502814292908, 'z': -0.024677040055394173}, 'orientation': {'x': 0.00606829402897547, 'y': -0.00978283408258712, 'z': 0.029955071788996313, 'w': -0.9994849905437744}}"
2022/11/02 12:04:06.631292939,"{'stamp': {'secs': 1667387046, 'nsecs': 629368393}, 'frame_id': 'map'}","{'position': {'x': 0.0024173359852284193, 'y': -0.006756553892046213, 'z': -0.024936262518167496}, 'orientation': {'x': 0.00605279880597489, 'y': -0.00978335136929814, 'z': 0.02995599901966356, 'w': -0.9994850748374713}}"
2022/11/02 12:04:06.664168430,"{'stamp': {'secs': 1667387046, 'nsecs': 660880578}, 'frame_id': 'map'}","{'position': {'x': 0.0023809438571333885, 'y': -0.006751534063369036, 'z': -0.02478211559355259}, 'orientation': {'x': 0.006030073422821169, 'y': -0.009824637170864847, 'z': 0.029980612779193894, 'w': -0.999484063313107}}"
2022/11/02 12:04:06.700159488,"{'stamp': {'secs': 1667387046, 'nsecs': 696809862}, 'frame_id': 'map'}","{'position': {'x': 0.002319027204066515, 'y': -0.006831155624240637, 'z': -0.02471722476184368}, 'orientation': {'x': 0.006021354952079986, 'y': -0.00981292627387939, 'z': 0.03006869969258169, 'w': -0.9994815345021965}}"
